~Version Information
VERS.             2.0: LAS Version 2.0
WRAP.             NO: One Line per depth step
~Well Information Block
STRT.M                0.22: Start Depth
STOP.M                100.84: Stop Depth
STEP.M                0.02: Start Depth
NULL.                    -999:NULL VALUE
COMP.                PT.BGG: COMPANY
WELL.                DH-09-05C1:
FLD.                 MUARA LAWAI: FIELD
UWI.                 uwi: UWI
LOC.                 location: LOCATION
PROV.                SOUTH SUMATERA: PROVINCE
CNTY.                indonesia: COUNTRY
SRVC.                RescaLog: SERVICE COMPANY
DATE.                06-04-2021 09:37:27: LOG DATE
~Curve Information Block
DEPT.M        :DEPTH
GR.CPS                  :Gamma Ray
CL.CPS                  :Caliper
LD.CPS                  :Long Density
SD.CPS                  :Short Density
#DATA
~A
0.22 64.00000 -999.00000 -999.00000 -999.00000
0.24 84.00000 -999.00000 -999.00000 -999.00000
0.26 70.00000 -999.00000 -999.00000 -999.00000
0.28 72.00000 -999.00000 -999.00000 -999.00000
0.30 88.00000 -999.00000 -999.00000 -999.00000
0.32 64.00000 -999.00000 -999.00000 -999.00000
0.34 50.00000 -999.00000 -999.00000 -999.00000
0.36 44.00000 -999.00000 -999.00000 -999.00000
0.38 62.00000 -999.00000 -999.00000 -999.00000
0.40 62.00000 -999.00000 -999.00000 -999.00000
0.42 62.00000 -999.00000 -999.00000 -999.00000
0.44 82.00000 -999.00000 -999.00000 -999.00000
0.46 90.00000 -999.00000 -999.00000 -999.00000
0.48 76.00000 -999.00000 -999.00000 -999.00000
0.50 64.00000 -999.00000 -999.00000 -999.00000
0.52 100.00000 -999.00000 -999.00000 -999.00000
0.54 108.00000 -999.00000 -999.00000 -999.00000
0.56 92.00000 -999.00000 -999.00000 -999.00000
0.58 80.00000 -999.00000 -999.00000 -999.00000
0.60 66.00000 -999.00000 -999.00000 -999.00000
0.62 84.00000 -999.00000 -999.00000 -999.00000
0.64 90.00000 -999.00000 -999.00000 -999.00000
0.66 84.00000 -999.00000 -999.00000 -999.00000
0.68 92.00000 -999.00000 -999.00000 -999.00000
0.70 102.00000 -999.00000 -999.00000 -999.00000
0.72 96.00000 -999.00000 -999.00000 -999.00000
0.74 96.00000 -999.00000 -999.00000 -999.00000
0.76 84.00000 -999.00000 -999.00000 -999.00000
0.78 88.00000 -999.00000 -999.00000 -999.00000
0.80 90.00000 -999.00000 -999.00000 -999.00000
0.82 80.00000 -999.00000 -999.00000 -999.00000
0.84 48.00000 -999.00000 -999.00000 -999.00000
0.86 50.00000 -999.00000 -999.00000 -999.00000
0.88 88.00000 -999.00000 -999.00000 -999.00000
0.90 102.00000 -999.00000 -999.00000 -999.00000
0.92 100.00000 -999.00000 -999.00000 -999.00000
0.94 74.00000 -999.00000 -999.00000 -999.00000
0.96 60.00000 -999.00000 -999.00000 -999.00000
0.98 56.00000 -999.00000 -999.00000 -999.00000
1.00 60.00000 -999.00000 -999.00000 -999.00000
1.02 68.00000 -999.00000 -999.00000 -999.00000
1.04 64.00000 -999.00000 -999.00000 -999.00000
1.06 56.00000 -999.00000 -999.00000 -999.00000
1.08 60.00000 -999.00000 -999.00000 -999.00000
1.10 74.00000 -999.00000 -999.00000 -999.00000
1.12 86.00000 -999.00000 -999.00000 -999.00000
1.14 86.00000 -999.00000 -999.00000 -999.00000
1.16 66.00000 -999.00000 -999.00000 -999.00000
1.18 58.00000 -999.00000 -999.00000 -999.00000
1.20 36.00000 -999.00000 -999.00000 -999.00000
1.22 34.00000 -999.00000 -999.00000 -999.00000
1.24 54.00000 -999.00000 -999.00000 -999.00000
1.26 68.00000 -999.00000 -999.00000 -999.00000
1.28 72.00000 -999.00000 -999.00000 -999.00000
1.30 54.00000 -999.00000 -999.00000 -999.00000
1.32 54.00000 -999.00000 -999.00000 -999.00000
1.34 52.00000 -999.00000 -999.00000 -999.00000
1.36 46.00000 -999.00000 -999.00000 -999.00000
1.38 54.00000 -999.00000 -999.00000 -999.00000
1.40 56.00000 -999.00000 -999.00000 -999.00000
1.42 52.00000 -999.00000 -999.00000 -999.00000
1.44 46.00000 -999.00000 -999.00000 -999.00000
1.46 54.00000 -999.00000 -999.00000 -999.00000
1.48 66.00000 -999.00000 -999.00000 -999.00000
1.50 64.00000 -999.00000 -999.00000 -999.00000
1.52 54.00000 -999.00000 -999.00000 -999.00000
1.54 42.00000 -999.00000 -999.00000 -999.00000
1.56 42.00000 -999.00000 -999.00000 -999.00000
1.58 36.00000 -999.00000 -999.00000 -999.00000
1.60 50.00000 -999.00000 -999.00000 -999.00000
1.62 58.00000 -999.00000 -999.00000 -999.00000
1.64 70.00000 -999.00000 -999.00000 -999.00000
1.66 70.00000 -999.00000 -999.00000 -999.00000
1.68 72.00000 -999.00000 -999.00000 -999.00000
1.70 70.00000 -999.00000 -999.00000 -999.00000
1.72 80.00000 6.29799 -999.00000 -999.00000
1.74 68.00000 6.31970 -999.00000 -999.00000
1.76 72.00000 6.30885 -999.00000 -999.00000
1.78 60.00000 6.28714 -999.00000 -999.00000
1.80 62.00000 6.28714 -999.00000 -999.00000
1.82 60.00000 6.29799 -999.00000 -999.00000
1.84 70.00000 6.29799 -999.00000 -999.00000
1.86 62.00000 6.29799 -999.00000 -999.00000
1.88 62.00000 6.30885 -999.00000 -999.00000
1.90 56.00000 6.30885 -999.00000 -999.00000
1.92 48.00000 6.30885 -999.00000 -999.00000
1.94 54.00000 6.31970 -999.00000 -999.00000
1.96 34.00000 6.33056 -999.00000 -999.00000
1.98 40.00000 6.34142 -999.00000 -999.00000
2.00 46.00000 6.35227 -999.00000 -999.00000
2.02 48.00000 6.35227 -999.00000 -999.00000
2.04 64.00000 6.35227 -999.00000 -999.00000
2.06 56.00000 6.33056 -999.00000 -999.00000
2.08 70.00000 6.29799 -999.00000 -999.00000
2.10 54.00000 6.27628 -999.00000 -999.00000
2.12 60.00000 6.27628 -999.00000 -999.00000
2.14 54.00000 6.30885 -999.00000 -999.00000
2.16 66.00000 6.33056 -999.00000 -999.00000
2.18 78.00000 6.35227 -999.00000 -999.00000
2.20 78.00000 6.35227 -999.00000 -999.00000
2.22 72.00000 6.33056 -999.00000 -999.00000
2.24 62.00000 6.31970 -999.00000 -999.00000
2.26 70.00000 6.28714 10398.00000 -999.00000
2.28 70.00000 6.27628 9536.00000 -999.00000
2.30 74.00000 6.27628 9428.00000 -999.00000
2.32 66.00000 6.28714 9606.00000 -999.00000
2.34 82.00000 6.30885 9794.00000 -999.00000
2.36 92.00000 6.33056 9860.00000 47862.00000
2.38 94.00000 6.35227 9636.00000 46510.00000
2.40 84.00000 6.33056 9686.00000 45740.00000
2.42 78.00000 6.30885 9742.00000 45670.00000
2.44 94.00000 6.27628 9614.00000 45388.00000
2.46 108.00000 6.28714 9578.00000 45170.00000
2.48 104.00000 6.30885 9086.00000 45162.00000
2.50 98.00000 6.34142 8694.00000 45078.00000
2.52 76.00000 6.35227 8476.00000 45092.00000
2.54 106.00000 6.33056 8764.00000 45526.00000
2.56 110.00000 6.30885 8954.00000 45410.00000
2.58 120.00000 6.28714 9076.00000 44696.00000
2.60 112.00000 6.28714 9048.00000 44822.00000
2.62 112.00000 6.28714 9194.00000 44264.00000
2.64 114.00000 6.30885 9118.00000 44366.00000
2.66 104.00000 6.33056 8992.00000 44218.00000
2.68 78.00000 6.34142 9000.00000 44926.00000
2.70 60.00000 6.35227 9070.00000 44972.00000
2.72 76.00000 6.34142 9060.00000 45284.00000
2.74 96.00000 6.31970 8798.00000 44836.00000
2.76 110.00000 6.27628 8412.00000 44588.00000
2.78 100.00000 6.27628 8300.00000 44084.00000
2.80 82.00000 6.27628 8112.00000 44080.00000
2.82 72.00000 6.28714 7910.00000 43858.00000
2.84 84.00000 6.31970 7518.00000 43526.00000
2.86 104.00000 6.33056 7420.00000 43170.00000
2.88 108.00000 6.35227 7366.00000 43074.00000
2.90 98.00000 6.35227 7282.00000 42754.00000
2.92 76.00000 6.35227 6968.00000 42322.00000
2.94 74.00000 6.33056 6766.00000 42036.00000
2.96 80.00000 6.30885 6746.00000 41830.00000
2.98 82.00000 6.27628 6554.00000 41904.00000
3.00 94.00000 6.27628 6418.00000 41872.00000
3.02 88.00000 6.30885 6290.00000 41804.00000
3.04 80.00000 6.30885 6200.00000 41266.00000
3.06 78.00000 6.30885 6206.00000 41380.00000
3.08 70.00000 6.30885 6160.00000 41504.00000
3.10 90.00000 6.30885 6146.00000 41318.00000
3.12 88.00000 6.30885 6100.00000 41186.00000
3.14 94.00000 6.30885 6052.00000 40536.00000
3.16 108.00000 6.30885 6178.00000 40548.00000
3.18 86.00000 6.33056 6270.00000 40042.00000
3.20 78.00000 6.33056 6132.00000 40232.00000
3.22 76.00000 6.33056 6100.00000 40026.00000
3.24 70.00000 6.33056 6014.00000 40052.00000
3.26 80.00000 6.29799 6050.00000 40046.00000
3.28 62.00000 6.30885 6122.00000 40558.00000
3.30 52.00000 6.31970 6184.00000 41246.00000
3.32 42.00000 6.33056 6222.00000 41516.00000
3.34 62.00000 6.30885 6320.00000 41638.00000
3.36 68.00000 6.28714 6346.00000 41626.00000
3.38 72.00000 6.28714 6480.00000 41406.00000
3.40 72.00000 6.31970 6488.00000 41574.00000
3.42 52.00000 6.33056 6524.00000 41448.00000
3.44 46.00000 6.33056 6434.00000 41508.00000
3.46 32.00000 6.31970 6476.00000 41390.00000
3.48 42.00000 6.31970 6458.00000 41262.00000
3.50 34.00000 6.31970 6488.00000 41324.00000
3.52 54.00000 6.31970 6188.00000 41110.00000
3.54 48.00000 6.30885 6162.00000 40830.00000
3.56 50.00000 6.33056 6230.00000 40620.00000
3.58 48.00000 6.31970 6426.00000 40434.00000
3.60 40.00000 6.33056 6520.00000 40492.00000
3.62 48.00000 6.31970 6450.00000 39996.00000
3.64 46.00000 6.31970 6358.00000 39752.00000
3.66 48.00000 6.30885 6194.00000 39670.00000
3.68 40.00000 6.33056 6130.00000 40214.00000
3.70 36.00000 6.31970 6100.00000 40628.00000
