~Version Information
VERS.             2.0: LAS Version 2.0
WRAP.             NO: One Line per depth step
~Well Information Block
STRT.M                0.22: Start Depth
STOP.M                100.84: Stop Depth
STEP.M                0.02: Start Depth
NULL.                    -999:NULL VALUE
COMP.                PT.BGG: COMPANY
WELL.                DH-09-05C1:
FLD.                 MUARA LAWAI: FIELD
UWI.                 uwi: UWI
LOC.                 location: LOCATION
PROV.                SOUTH SUMATERA: PROVINCE
CNTY.                indonesia: COUNTRY
SRVC.                RescaLog: SERVICE COMPANY
DATE.                06-04-2021 09:37:27: LOG DATE
~Curve Information Block
DEPT.M        :DEPTH
GR.CPS                  :Gamma Ray
CL.CPS                  :Caliper
LD.CPS                  :Long Density
SD.CPS                  :Short Density
#DATA
~A
# ...
98.28 68.00000 2.85669 3960.00000 41542.00000
98.30 58.00000 2.85669 4050.00000 40732.00000
98.32 74.00000 2.84583 4006.00000 40410.00000
98.34 72.00000 2.85669 4098.00000 40496.00000
98.36 54.00000 2.85669 4322.00000 40086.00000
98.38 46.00000 2.84583 4222.00000 39798.00000
98.40 40.00000 2.86755 4068.00000 40592.00000
98.42 38.00000 2.87840 4054.00000 40948.00000
98.44 60.00000 2.85669 4128.00000 41222.00000
98.46 80.00000 2.85669 4062.00000 41600.00000
98.48 74.00000 2.86755 3990.00000 41214.00000
98.50 40.00000 2.85669 4174.00000 40840.00000
98.52 34.00000 2.86755 4196.00000 40226.00000
98.54 70.00000 2.85669 4340.00000 40104.00000
98.56 48.00000 2.85669 4396.00000 40092.00000
98.58 52.00000 2.86755 4354.00000 39854.00000
98.60 60.00000 2.86755 4540.00000 40082.00000
98.62 44.00000 2.86755 4692.00000 40320.00000
98.64 46.00000 2.84583 4706.00000 40950.00000
98.66 42.00000 2.83498 4818.00000 41088.00000
98.68 30.00000 2.85669 5046.00000 41714.00000
98.70 30.00000 2.86755 5308.00000 42156.00000
98.72 -999.00000 2.85669 5356.00000 42226.00000
98.74 -999.00000 2.85669 5404.00000 42186.00000
98.76 -999.00000 2.86755 5734.00000 41348.00000
98.78 -999.00000 2.87840 5804.00000 41154.00000
98.80 -999.00000 2.86755 6006.00000 41304.00000
98.82 -999.00000 2.86755 6284.00000 41038.00000
98.84 -999.00000 2.87840 6206.00000 40720.00000
98.86 -999.00000 2.87840 6010.00000 40402.00000
98.88 -999.00000 2.87840 5958.00000 40612.00000
98.90 -999.00000 2.87840 6052.00000 41114.00000
98.92 -999.00000 2.86755 6068.00000 41630.00000
98.94 -999.00000 2.85669 6008.00000 42572.00000
98.96 -999.00000 2.86755 6118.00000 43172.00000
98.98 -999.00000 2.87840 6388.00000 43606.00000
99.00 -999.00000 2.87840 6446.00000 43560.00000
99.02 -999.00000 2.85669 6554.00000 43440.00000
99.04 -999.00000 2.87840 6798.00000 43796.00000
99.06 -999.00000 2.86755 6928.00000 43688.00000
99.08 -999.00000 2.85669 7116.00000 43598.00000
99.10 -999.00000 2.85669 7218.00000 43620.00000
99.12 -999.00000 2.85669 7042.00000 43758.00000
99.14 -999.00000 2.85669 7096.00000 43882.00000
99.16 -999.00000 2.83498 7242.00000 43294.00000
99.18 -999.00000 2.83498 7226.00000 43234.00000
99.20 -999.00000 2.84583 7242.00000 43422.00000
99.22 -999.00000 2.83498 7292.00000 43308.00000
99.24 -999.00000 2.84583 7412.00000 43586.00000
99.26 -999.00000 2.85669 7516.00000 44122.00000
99.28 -999.00000 2.82412 7454.00000 44140.00000
99.30 -999.00000 2.83498 7378.00000 44132.00000
99.32 -999.00000 2.84583 7318.00000 44074.00000
99.34 -999.00000 2.83498 7676.00000 43678.00000
99.36 -999.00000 2.84583 7694.00000 43698.00000
99.38 -999.00000 2.83498 7678.00000 44364.00000
99.40 -999.00000 2.82412 7846.00000 44134.00000
99.42 -999.00000 2.83498 7872.00000 43638.00000
99.44 -999.00000 2.83498 7844.00000 44108.00000
99.46 -999.00000 2.82412 8004.00000 44140.00000
99.48 -999.00000 2.82412 7896.00000 43808.00000
99.50 -999.00000 2.82412 7740.00000 43808.00000
99.52 -999.00000 2.82412 8056.00000 43996.00000
99.54 -999.00000 2.82412 8122.00000 43938.00000
99.56 -999.00000 2.82412 8182.00000 44076.00000
99.58 -999.00000 2.82412 8342.00000 44434.00000
99.60 -999.00000 2.83498 8514.00000 44606.00000
99.62 -999.00000 2.83498 8576.00000 44500.00000
99.64 -999.00000 2.83498 8436.00000 44408.00000
99.66 -999.00000 2.83498 8558.00000 44224.00000
99.68 -999.00000 2.81327 8646.00000 44234.00000
99.70 -999.00000 2.81327 8622.00000 44378.00000
99.72 -999.00000 2.82412 8772.00000 44210.00000
99.74 -999.00000 2.82412 8726.00000 44584.00000
99.76 -999.00000 2.81327 8590.00000 44474.00000
99.78 -999.00000 2.82412 8650.00000 44190.00000
99.80 -999.00000 2.82412 8692.00000 44460.00000
99.82 -999.00000 2.82412 8496.00000 44156.00000
99.84 -999.00000 2.81327 8394.00000 43668.00000
99.86 -999.00000 2.78070 8374.00000 44040.00000
99.88 -999.00000 2.76984 8554.00000 44162.00000
99.90 -999.00000 2.78070 8380.00000 44142.00000
99.92 -999.00000 2.78070 8308.00000 44372.00000
99.94 -999.00000 2.75899 8528.00000 44058.00000
99.96 -999.00000 2.75899 8474.00000 43998.00000
99.98 -999.00000 2.73728 8276.00000 43956.00000
100.00 -999.00000 2.70471 8062.00000 43802.00000
100.02 -999.00000 2.68300 7840.00000 43910.00000
100.04 -999.00000 2.63957 7740.00000 44224.00000
100.06 -999.00000 2.58529 7568.00000 44152.00000
100.08 -999.00000 2.54187 7414.00000 43764.00000
100.10 -999.00000 2.48759 7318.00000 43946.00000
100.12 -999.00000 2.48759 7278.00000 43362.00000
100.14 -999.00000 2.48759 6932.00000 42478.00000
100.16 -999.00000 2.43331 6972.00000 42314.00000
100.18 -999.00000 2.38989 6836.00000 41970.00000
100.20 -999.00000 2.36818 6770.00000 41114.00000
100.22 -999.00000 -999.00000 6688.00000 40998.00000
100.24 -999.00000 -999.00000 6266.00000 41398.00000
100.26 -999.00000 -999.00000 5946.00000 42110.00000
100.28 -999.00000 -999.00000 5814.00000 42894.00000
100.30 -999.00000 -999.00000 5488.00000 43036.00000
100.32 -999.00000 -999.00000 5152.00000 42846.00000
100.34 -999.00000 -999.00000 5024.00000 41182.00000
100.36 -999.00000 -999.00000 4840.00000 40156.00000
100.38 -999.00000 -999.00000 4782.00000 39274.00000
100.40 -999.00000 -999.00000 4434.00000 38710.00000
100.42 -999.00000 -999.00000 4192.00000 37702.00000
100.44 -999.00000 -999.00000 3982.00000 37508.00000
100.46 -999.00000 -999.00000 3852.00000 37274.00000
100.48 -999.00000 -999.00000 3696.00000 37236.00000
100.50 -999.00000 -999.00000 3580.00000 37360.00000
100.52 -999.00000 -999.00000 3482.00000 37458.00000
100.54 -999.00000 -999.00000 3224.00000 37130.00000
100.56 -999.00000 -999.00000 3090.00000 37268.00000
100.58 -999.00000 -999.00000 3306.00000 37480.00000
100.60 -999.00000 -999.00000 3334.00000 37674.00000
100.62 -999.00000 -999.00000 3252.00000 37196.00000
100.64 -999.00000 -999.00000 3108.00000 37398.00000
100.66 -999.00000 -999.00000 3388.00000 37430.00000
100.68 -999.00000 -999.00000 3414.00000 37284.00000
100.70 -999.00000 -999.00000 3412.00000 37092.00000
100.72 -999.00000 -999.00000 3546.00000 37128.00000
100.74 -999.00000 -999.00000 3470.00000 37266.00000
100.76 -999.00000 -999.00000 -999.00000 37756.00000
100.78 -999.00000 -999.00000 -999.00000 37722.00000
100.80 -999.00000 -999.00000 -999.00000 37742.00000
100.82 -999.00000 -999.00000 -999.00000 38194.00000
100.84 -999.00000 -999.00000 -999.00000 38558.00000
