~Version Information
VERS.             2.0: LAS Version 2.0
WRAP.             NO: One Line per depth step
~Well Information Block
STRT.M                0.22: Start Depth
STOP.M                100.84: Stop Depth
STEP.M                0.02: Start Depth
NULL.                    -999:NULL VALUE
COMP.                PT.BGG: COMPANY
WELL.                DH-09-05C1:
FLD.                 MUARA LAWAI: FIELD
UWI.                 uwi: UWI
LOC.                 location: LOCATION
PROV.                SOUTH SUMATERA: PROVINCE
CNTY.                indonesia: COUNTRY
SRVC.                RescaLog: SERVICE COMPANY
DATE.                06-04-2021 09:37:27: LOG DATE
~Curve Information Block
DEPT.M        :DEPTH
GR.CPS                  :Gamma Ray
CL.CPS                  :Caliper
LD.CPS                  :Long Density
SD.CPS                  :Short Density
#DATA
~A
# ...
21.26 16.00000 4.63705 4536.00000 39302.00000
21.28 16.00000 4.63705 4342.00000 39098.00000
21.30 12.00000 4.62619 4126.00000 38720.00000
21.32 20.00000 4.62619 4058.00000 38606.00000
21.34 20.00000 4.62619 3952.00000 38146.00000
21.36 24.00000 4.61534 4030.00000 38080.00000
21.38 22.00000 4.61534 4048.00000 37846.00000
21.40 26.00000 4.61534 4012.00000 38046.00000
21.42 34.00000 4.62619 3876.00000 38120.00000
21.44 44.00000 4.62619 3866.00000 38072.00000
21.46 38.00000 4.62619 3942.00000 37978.00000
21.48 28.00000 4.60448 4012.00000 38398.00000
21.50 24.00000 4.60448 3922.00000 38804.00000
21.52 28.00000 4.60448 3938.00000 38868.00000
21.54 34.00000 4.61534 3856.00000 39024.00000
21.56 40.00000 4.61534 3976.00000 38986.00000
21.58 38.00000 4.61534 3932.00000 38844.00000
21.60 34.00000 4.59362 3908.00000 38278.00000
21.62 30.00000 4.59362 3968.00000 38220.00000
21.64 50.00000 4.59362 4030.00000 37912.00000
21.66 60.00000 4.61534 4094.00000 37820.00000
21.68 52.00000 4.60448 4078.00000 38118.00000
21.70 48.00000 4.60448 4078.00000 38040.00000
21.72 46.00000 4.60448 4056.00000 38428.00000
21.74 38.00000 4.61534 3956.00000 38662.00000
21.76 38.00000 4.61534 3982.00000 38774.00000
21.78 34.00000 4.59362 3884.00000 38898.00000
21.80 48.00000 4.59362 3922.00000 39112.00000
21.82 48.00000 4.59362 3852.00000 39070.00000
21.84 38.00000 4.61534 3862.00000 38916.00000
21.86 34.00000 4.61534 3974.00000 38598.00000
21.88 22.00000 4.59362 4118.00000 38690.00000
21.90 26.00000 4.59362 4094.00000 38610.00000
21.92 34.00000 4.59362 3930.00000 38728.00000
21.94 52.00000 4.61534 3784.00000 38532.00000
21.96 54.00000 4.61534 3854.00000 38430.00000
21.98 48.00000 4.59362 3968.00000 38508.00000
22.00 32.00000 4.57191 4066.00000 38664.00000
22.02 34.00000 4.57191 4124.00000 38660.00000
22.04 52.00000 4.59362 4116.00000 38644.00000
22.06 54.00000 4.61534 4020.00000 38580.00000
22.08 52.00000 4.61534 3852.00000 38542.00000
22.10 36.00000 4.61534 3824.00000 38644.00000
22.12 34.00000 4.61534 3838.00000 38842.00000
22.14 34.00000 4.60448 3950.00000 39144.00000
22.16 38.00000 4.59362 3974.00000 39172.00000
22.18 30.00000 4.59362 4112.00000 39468.00000
22.20 34.00000 4.59362 4162.00000 39820.00000
22.22 30.00000 4.60448 4090.00000 39874.00000
22.24 28.00000 4.59362 4026.00000 39368.00000
22.26 38.00000 4.59362 4036.00000 39188.00000
22.28 34.00000 4.59362 4148.00000 39008.00000
22.30 38.00000 4.60448 4142.00000 38846.00000
22.32 30.00000 4.59362 4000.00000 38684.00000
22.34 28.00000 4.60448 3990.00000 38610.00000
22.36 26.00000 4.59362 3974.00000 38866.00000
22.38 24.00000 4.60448 3972.00000 39118.00000
22.40 22.00000 4.58277 3926.00000 39280.00000
22.42 18.00000 4.59362 4044.00000 39118.00000
22.44 50.00000 4.58277 4062.00000 38854.00000
22.46 62.00000 4.60448 4020.00000 38572.00000
22.48 68.00000 4.59362 3894.00000 38568.00000
22.50 44.00000 4.59362 3844.00000 38470.00000
22.52 46.00000 4.59362 3802.00000 38542.00000
22.54 40.00000 4.60448 3864.00000 38292.00000
22.56 34.00000 4.60448 3984.00000 38392.00000
22.58 34.00000 4.59362 4036.00000 38362.00000
22.60 40.00000 4.58277 4126.00000 38292.00000
22.62 40.00000 4.58277 3942.00000 38512.00000
22.64 56.00000 4.59362 3926.00000 38600.00000
22.66 60.00000 4.60448 3900.00000 38588.00000
22.68 66.00000 4.60448 4034.00000 38362.00000
22.70 48.00000 4.61534 4086.00000 38048.00000
22.72 48.00000 4.61534 4000.00000 38116.00000
22.74 36.00000 4.61534 3938.00000 38066.00000
22.76 28.00000 4.60448 4012.00000 38316.00000
22.78 36.00000 4.60448 4002.00000 38760.00000
22.80 48.00000 4.59362 3998.00000 38870.00000
22.82 48.00000 4.58277 3892.00000 38854.00000
22.84 36.00000 4.59362 4082.00000 38750.00000
22.86 36.00000 4.58277 4130.00000 38692.00000
22.88 36.00000 4.57191 4406.00000 38952.00000
22.90 40.00000 4.56106 4406.00000 38862.00000
22.92 38.00000 4.58277 4402.00000 39622.00000
22.94 36.00000 4.60448 4350.00000 40022.00000
22.96 38.00000 4.60448 4382.00000 40154.00000
22.98 34.00000 4.60448 4560.00000 39908.00000
23.00 56.00000 4.59362 4586.00000 40076.00000
23.02 48.00000 4.59362 4652.00000 40440.00000
23.04 46.00000 4.58277 4700.00000 40736.00000
23.06 30.00000 4.59362 4734.00000 40700.00000
23.08 46.00000 4.58277 4782.00000 40548.00000
23.10 52.00000 4.57191 4782.00000 40508.00000
23.12 52.00000 4.57191 4740.00000 40162.00000
23.14 42.00000 4.57191 4752.00000 39868.00000
23.16 46.00000 4.57191 4794.00000 39692.00000
23.18 44.00000 4.57191 4876.00000 39754.00000
23.20 44.00000 4.57191 4890.00000 40022.00000
23.22 30.00000 4.58277 4866.00000 40430.00000
23.24 38.00000 4.58277 5020.00000 40814.00000
23.26 32.00000 4.58277 5036.00000 41032.00000
23.28 44.00000 4.59362 5180.00000 41144.00000
23.30 40.00000 4.58277 4996.00000 41446.00000
23.32 34.00000 4.58277 4928.00000 41396.00000
23.34 34.00000 4.58277 4828.00000 41848.00000
23.36 28.00000 4.58277 4840.00000 41726.00000
23.38 26.00000 4.59362 4870.00000 41432.00000
23.40 24.00000 4.60448 4984.00000 41050.00000
23.42 26.00000 4.61534 4766.00000 40990.00000
23.44 36.00000 4.61534 4536.00000 40444.00000
23.46 26.00000 4.60448 4318.00000 40074.00000
23.48 26.00000 4.58277 4282.00000 39496.00000
23.50 18.00000 4.57191 4196.00000 39604.00000
23.52 28.00000 4.57191 4162.00000 39100.00000
23.54 38.00000 4.57191 4076.00000 38862.00000
23.56 42.00000 4.57191 4066.00000 38692.00000
23.58 32.00000 4.56106 4086.00000 38810.00000
23.60 20.00000 4.56106 4020.00000 38846.00000
23.62 22.00000 4.56106 4096.00000 38604.00000
23.64 28.00000 4.55020 4134.00000 38510.00000
23.66 40.00000 4.55020 4210.00000 38370.00000
23.68 40.00000 4.55020 4260.00000 38488.00000
23.70 46.00000 4.58277 4230.00000 38374.00000
23.72 42.00000 4.58277 4218.00000 38644.00000
23.74 42.00000 4.58277 4120.00000 38560.00000
23.76 40.00000 4.56106 4188.00000 38818.00000
23.78 32.00000 4.55020 4128.00000 39066.00000
23.80 38.00000 4.55020 4220.00000 39000.00000
23.82 26.00000 4.56106 4188.00000 39106.00000
23.84 40.00000 4.58277 4240.00000 39024.00000
23.86 44.00000 4.59362 4160.00000 39148.00000
23.88 44.00000 4.58277 4154.00000 39016.00000
23.90 24.00000 4.57191 4194.00000 38834.00000
23.92 28.00000 4.57191 4210.00000 38790.00000
23.94 34.00000 4.57191 4366.00000 38864.00000
23.96 38.00000 4.56106 4372.00000 38690.00000
23.98 28.00000 4.55020 4300.00000 38454.00000
24.00 36.00000 4.56106 4284.00000 38288.00000
24.02 40.00000 4.56106 4218.00000 38650.00000
24.04 44.00000 4.56106 4246.00000 39208.00000
24.06 50.00000 4.57191 4228.00000 39312.00000
24.08 58.00000 4.57191 4226.00000 39642.00000
24.10 54.00000 4.59362 4224.00000 39714.00000
24.12 38.00000 4.60448 4216.00000 39272.00000
24.14 32.00000 4.60448 4128.00000 38882.00000
24.16 34.00000 4.59362 4128.00000 38870.00000
24.18 46.00000 4.58277 4282.00000 38864.00000
24.20 50.00000 4.57191 4320.00000 39056.00000
24.22 58.00000 4.56106 4376.00000 39230.00000
24.24 46.00000 4.56106 4296.00000 39536.00000
24.26 32.00000 4.57191 4320.00000 39780.00000
24.28 14.00000 4.58277 4454.00000 39978.00000
24.30 20.00000 4.58277 4508.00000 40060.00000
24.32 18.00000 4.57191 4636.00000 39932.00000
24.34 30.00000 4.55020 4618.00000 40296.00000
24.36 30.00000 4.55020 4604.00000 40556.00000
24.38 36.00000 4.55020 4700.00000 41160.00000
24.40 36.00000 4.58277 4746.00000 41398.00000
24.42 30.00000 4.59362 4818.00000 41168.00000
24.44 30.00000 4.60448 4790.00000 41164.00000
24.46 26.00000 4.59362 4814.00000 40942.00000
24.48 26.00000 4.59362 4760.00000 41012.00000
24.50 30.00000 4.58277 4690.00000 40550.00000
24.52 36.00000 4.57191 4634.00000 40412.00000
24.54 34.00000 4.55020 4584.00000 40332.00000
24.56 30.00000 4.55020 4580.00000 40422.00000
24.58 32.00000 4.57191 4572.00000 40692.00000
24.60 40.00000 4.59362 4506.00000 40844.00000
24.62 46.00000 4.59362 4466.00000 40918.00000
24.64 44.00000 4.58277 4554.00000 41270.00000
24.66 40.00000 4.55020 4696.00000 41552.00000
24.68 54.00000 4.55020 4732.00000 41492.00000
24.70 52.00000 4.57191 4616.00000 41500.00000
24.72 54.00000 4.59362 4570.00000 41748.00000
