~Version Information
VERS.             2.0: LAS Version 2.0
WRAP.             NO: One Line per depth step
~Well Information Block
STRT.M                0.22: Start Depth
STOP.M                100.84: Stop Depth
STEP.M                0.02: Start Depth
NULL.                    -999:NULL VALUE
COMP.                PT.BGG: COMPANY
WELL.                DH-09-05C1:
FLD.                 MUARA LAWAI: FIELD
UWI.                 uwi: UWI
LOC.                 location: LOCATION
PROV.                SOUTH SUMATERA: PROVINCE
CNTY.                indonesia: COUNTRY
SRVC.                RescaLog: SERVICE COMPANY
DATE.                06-04-2021 09:37:27: LOG DATE
~Curve Information Block
DEPT.M        :DEPTH
GR.CPS                  :Gamma Ray
CL.CPS                  :Caliper
LD.CPS                  :Long Density
SD.CPS                  :Short Density
#DATA
~A
# ...
66.54 12.00000 4.25709 3460.00000 39362.00000
66.56 12.00000 4.27881 3430.00000 38928.00000
66.58 12.00000 4.27881 3460.00000 38830.00000
66.60 10.00000 4.26795 3510.00000 38870.00000
66.62 12.00000 4.26795 3580.00000 39018.00000
66.64 12.00000 4.26795 3508.00000 38840.00000
66.66 18.00000 4.25709 3382.00000 38848.00000
66.68 10.00000 4.23538 3348.00000 39012.00000
66.70 14.00000 4.25709 3414.00000 38840.00000
66.72 18.00000 4.26795 3400.00000 38512.00000
66.74 20.00000 4.24624 3406.00000 38426.00000
66.76 14.00000 4.22453 3432.00000 38526.00000
66.78 6.00000 4.24624 3466.00000 37992.00000
66.80 12.00000 4.27881 3488.00000 37448.00000
66.82 18.00000 4.26795 3448.00000 37376.00000
66.84 24.00000 4.24624 3476.00000 37480.00000
66.86 28.00000 4.24624 3514.00000 37768.00000
66.88 30.00000 4.26795 3532.00000 38128.00000
66.90 30.00000 4.27881 3604.00000 38106.00000
66.92 38.00000 4.24624 3554.00000 38136.00000
66.94 30.00000 4.24624 3462.00000 38132.00000
66.96 24.00000 4.27881 3462.00000 38044.00000
66.98 36.00000 4.25709 3374.00000 37684.00000
67.00 48.00000 4.24624 3520.00000 37438.00000
67.02 56.00000 4.25709 3602.00000 37524.00000
67.04 62.00000 4.27881 3680.00000 37494.00000
67.06 56.00000 4.25709 3620.00000 37332.00000
67.08 40.00000 4.24624 3548.00000 37486.00000
67.10 28.00000 4.25709 3568.00000 37906.00000
67.12 38.00000 4.25709 3604.00000 38162.00000
67.14 44.00000 4.24624 3740.00000 38476.00000
67.16 34.00000 4.24624 3738.00000 38316.00000
67.18 30.00000 4.23538 3626.00000 37956.00000
67.20 18.00000 4.24624 3494.00000 38166.00000
67.22 8.00000 4.27881 3522.00000 38208.00000
67.24 10.00000 4.26795 3490.00000 38518.00000
67.26 14.00000 4.25709 3486.00000 38740.00000
67.28 24.00000 4.26795 3436.00000 38696.00000
67.30 20.00000 4.27881 3340.00000 38530.00000
67.32 14.00000 4.27881 3404.00000 38118.00000
67.34 10.00000 4.26795 3554.00000 37906.00000
67.36 16.00000 4.25709 3622.00000 37458.00000
67.38 18.00000 4.23538 3630.00000 37310.00000
67.40 14.00000 4.22453 3440.00000 37368.00000
67.42 18.00000 4.22453 3218.00000 37286.00000
67.44 18.00000 4.23538 3156.00000 37006.00000
67.46 20.00000 4.23538 3190.00000 36938.00000
67.48 20.00000 4.21367 3406.00000 37030.00000
67.50 44.00000 4.21367 3390.00000 37118.00000
67.52 40.00000 4.20281 3328.00000 37078.00000
67.54 42.00000 4.19196 3424.00000 36926.00000
67.56 26.00000 4.19196 3568.00000 36882.00000
67.58 36.00000 4.20281 3508.00000 36994.00000
67.60 38.00000 4.20281 3498.00000 37124.00000
67.62 34.00000 4.20281 3456.00000 37364.00000
67.64 32.00000 4.19196 3494.00000 37902.00000
67.66 36.00000 4.20281 3492.00000 37938.00000
67.68 32.00000 4.22453 3548.00000 37534.00000
67.70 26.00000 4.20281 3580.00000 37428.00000
67.72 32.00000 4.19196 3418.00000 37430.00000
67.74 46.00000 4.20281 3458.00000 37562.00000
67.76 52.00000 4.21367 3466.00000 37798.00000
67.78 48.00000 4.20281 3536.00000 37792.00000
67.80 40.00000 4.20281 3568.00000 37640.00000
67.82 36.00000 4.19196 3504.00000 37368.00000
67.84 54.00000 4.19196 3484.00000 37272.00000
67.86 58.00000 4.18110 3616.00000 37240.00000
67.88 52.00000 4.18110 3740.00000 37370.00000
67.90 50.00000 4.15939 3698.00000 37610.00000
67.92 56.00000 4.15939 3654.00000 37418.00000
67.94 62.00000 4.14854 3638.00000 37650.00000
67.96 48.00000 4.15939 3532.00000 38050.00000
67.98 30.00000 4.15939 3444.00000 38654.00000
68.00 28.00000 4.15939 3514.00000 38288.00000
68.02 32.00000 4.13768 3534.00000 38028.00000
68.04 40.00000 4.13768 3472.00000 37852.00000
68.06 36.00000 4.13768 3516.00000 37902.00000
68.08 44.00000 4.14854 3594.00000 37942.00000
68.10 52.00000 4.15939 3524.00000 37970.00000
68.12 46.00000 4.15939 3584.00000 38062.00000
68.14 38.00000 4.15939 3562.00000 37876.00000
68.16 36.00000 4.14854 3456.00000 38082.00000
68.18 44.00000 4.14854 3418.00000 38436.00000
68.20 48.00000 4.13768 3380.00000 38366.00000
68.22 40.00000 4.15939 3264.00000 38060.00000
68.24 42.00000 4.14854 3306.00000 38206.00000
68.26 28.00000 4.17025 3310.00000 37980.00000
68.28 50.00000 4.17025 3314.00000 37564.00000
68.30 60.00000 4.17025 3378.00000 37344.00000
68.32 50.00000 4.14854 3448.00000 37368.00000
68.34 36.00000 4.14854 3296.00000 37256.00000
68.36 34.00000 4.14854 3210.00000 36912.00000
68.38 40.00000 4.15939 3208.00000 36866.00000
68.40 34.00000 4.15939 3254.00000 36940.00000
68.42 36.00000 4.15939 3264.00000 37042.00000
68.44 46.00000 4.15939 3256.00000 36918.00000
68.46 42.00000 4.09426 3184.00000 36990.00000
68.48 42.00000 4.03998 3162.00000 37346.00000
68.50 42.00000 4.01827 3214.00000 37412.00000
68.52 38.00000 4.02912 3216.00000 37638.00000
68.54 28.00000 4.03998 3212.00000 37170.00000
68.56 40.00000 4.01827 3046.00000 36854.00000
68.58 42.00000 3.99655 3040.00000 36878.00000
68.60 48.00000 3.98570 3102.00000 36888.00000
68.62 44.00000 3.97484 3096.00000 37330.00000
68.64 54.00000 3.98570 3168.00000 37270.00000
68.66 58.00000 3.99655 3178.00000 37162.00000
68.68 62.00000 3.98570 3082.00000 37200.00000
68.70 70.00000 3.99655 2966.00000 37094.00000
68.72 82.00000 3.98570 3026.00000 36878.00000
68.74 78.00000 4.00741 3052.00000 36976.00000
68.76 74.00000 3.99655 2876.00000 36646.00000
68.78 62.00000 3.98570 2716.00000 36560.00000
68.80 58.00000 3.96399 2714.00000 36490.00000
68.82 58.00000 3.96399 2712.00000 36146.00000
68.84 50.00000 3.98570 2722.00000 35814.00000
68.86 46.00000 3.99655 2734.00000 35782.00000
68.88 52.00000 3.99655 2738.00000 35704.00000
68.90 52.00000 3.98570 2734.00000 35588.00000
68.92 48.00000 3.96399 2752.00000 35372.00000
68.94 60.00000 3.97484 2766.00000 35828.00000
68.96 52.00000 3.99655 2642.00000 35864.00000
68.98 62.00000 3.98570 2612.00000 36274.00000
69.00 58.00000 3.97484 2632.00000 36272.00000
69.02 52.00000 3.98570 2764.00000 36146.00000
69.04 42.00000 3.99655 2772.00000 36124.00000
69.06 50.00000 3.98570 2712.00000 35798.00000
69.08 60.00000 3.96399 2682.00000 35768.00000
69.10 60.00000 3.97484 2714.00000 35536.00000
69.12 48.00000 3.97484 2798.00000 35670.00000
69.14 34.00000 3.97484 2792.00000 35718.00000
69.16 30.00000 3.97484 2810.00000 35702.00000
69.18 24.00000 3.97484 2804.00000 35920.00000
69.20 30.00000 3.96399 2752.00000 35858.00000
69.22 32.00000 3.96399 2748.00000 35882.00000
69.24 40.00000 3.96399 2736.00000 36032.00000
69.26 50.00000 3.98570 2942.00000 36298.00000
69.28 50.00000 3.99655 3074.00000 36352.00000
69.30 46.00000 3.98570 3066.00000 36536.00000
69.32 48.00000 3.98570 3022.00000 36470.00000
69.34 40.00000 3.98570 3086.00000 36588.00000
69.36 44.00000 3.99655 3144.00000 36722.00000
69.38 44.00000 3.99655 3162.00000 36856.00000
69.40 44.00000 3.98570 3134.00000 36924.00000
69.42 38.00000 3.98570 3168.00000 37258.00000
69.44 50.00000 3.98570 3164.00000 37266.00000
69.46 46.00000 3.97484 3118.00000 37038.00000
69.48 42.00000 3.97484 3200.00000 37012.00000
69.50 40.00000 3.99655 3282.00000 37290.00000
69.52 46.00000 4.00741 3156.00000 37434.00000
69.54 44.00000 3.98570 3038.00000 37050.00000
69.56 46.00000 3.96399 3080.00000 36964.00000
69.58 50.00000 4.09426 3132.00000 36846.00000
69.60 50.00000 3.98570 3206.00000 36764.00000
69.62 54.00000 3.82286 3180.00000 36650.00000
69.64 54.00000 3.62746 3060.00000 36380.00000
69.66 70.00000 3.62746 2990.00000 36552.00000
69.68 64.00000 3.63831 3028.00000 36368.00000
69.70 44.00000 3.63831 2976.00000 36526.00000
69.72 48.00000 3.62746 2874.00000 36268.00000
69.74 56.00000 3.62746 2888.00000 36184.00000
69.76 54.00000 3.62746 2954.00000 36254.00000
69.78 58.00000 3.63831 2962.00000 36462.00000
69.80 62.00000 3.63831 2986.00000 36674.00000
69.82 60.00000 3.63831 2998.00000 36558.00000
69.84 54.00000 3.63831 2964.00000 36422.00000
69.86 40.00000 3.62746 2896.00000 36156.00000
69.88 36.00000 3.62746 2846.00000 36018.00000
69.90 38.00000 3.62746 2884.00000 36252.00000
69.92 32.00000 3.62746 2846.00000 36152.00000
69.94 30.00000 3.62746 2840.00000 35924.00000
69.96 46.00000 3.63831 2810.00000 35486.00000
69.98 32.00000 3.63831 2986.00000 35248.00000
70.00 32.00000 3.63831 3092.00000 35090.00000
