~Version Information
VERS.             2.0: LAS Version 2.0
WRAP.             NO: One Line per depth step
~Well Information Block
STRT.M                0.22: Start Depth
STOP.M                100.84: Stop Depth
STEP.M                0.02: Start Depth
NULL.                    -999:NULL VALUE
COMP.                PT.BGG: COMPANY
WELL.                DH-09-05C1:
FLD.                 MUARA LAWAI: FIELD
UWI.                 uwi: UWI
LOC.                 location: LOCATION
PROV.                SOUTH SUMATERA: PROVINCE
CNTY.                indonesia: COUNTRY
SRVC.                RescaLog: SERVICE COMPANY
DATE.                06-04-2021 09:37:27: LOG DATE
~Curve Information Block
DEPT.M        :DEPTH
GR.CPS                  :Gamma Ray
CL.CPS                  :Caliper
LD.CPS                  :Long Density
SD.CPS                  :Short Density
#DATA
~A
# ...
77.06 6.00000 3.61660 8780.00000 43968.00000
77.08 6.00000 3.60574 8818.00000 43912.00000
77.10 6.00000 3.60574 8946.00000 43772.00000
77.12 0.00000 3.60574 8784.00000 43920.00000
77.14 0.00000 3.60574 8620.00000 44234.00000
77.16 2.00000 3.62746 8738.00000 44364.00000
77.18 6.00000 3.60574 8934.00000 44072.00000
77.20 12.00000 3.59489 8738.00000 43932.00000
77.22 18.00000 3.62746 8386.00000 43958.00000
77.24 14.00000 3.62746 8196.00000 43922.00000
77.26 8.00000 3.61660 8004.00000 43806.00000
77.28 10.00000 3.59489 7660.00000 43818.00000
77.30 10.00000 3.59489 7276.00000 43530.00000
77.32 6.00000 3.60574 6888.00000 43498.00000
77.34 8.00000 3.60574 6668.00000 42762.00000
77.36 8.00000 3.60574 6488.00000 41774.00000
77.38 8.00000 3.59489 6392.00000 41104.00000
77.40 6.00000 3.60574 6084.00000 40254.00000
77.42 10.00000 3.60574 5876.00000 39850.00000
77.44 14.00000 3.60574 5746.00000 39512.00000
77.46 18.00000 3.61660 5678.00000 39316.00000
77.48 14.00000 3.59489 5640.00000 39226.00000
77.50 16.00000 3.61660 5670.00000 39774.00000
77.52 16.00000 3.59489 5720.00000 40724.00000
77.54 18.00000 3.60574 5838.00000 41740.00000
77.56 16.00000 3.61660 5926.00000 42846.00000
77.58 18.00000 3.60574 6118.00000 43230.00000
77.60 16.00000 3.60574 6462.00000 43434.00000
77.62 16.00000 3.61660 7002.00000 43078.00000
77.64 12.00000 3.58403 7330.00000 43016.00000
77.66 12.00000 3.57318 7768.00000 43036.00000
77.68 10.00000 3.59489 8104.00000 43088.00000
77.70 12.00000 3.61660 8442.00000 43234.00000
77.72 14.00000 3.61660 8406.00000 43358.00000
77.74 12.00000 3.60574 8590.00000 43626.00000
77.76 8.00000 3.60574 8672.00000 43942.00000
77.78 8.00000 3.61660 8810.00000 43816.00000
77.80 10.00000 3.60574 8818.00000 43662.00000
77.82 8.00000 3.61660 9040.00000 43660.00000
77.84 8.00000 3.61660 8800.00000 43528.00000
77.86 10.00000 3.59489 8610.00000 43480.00000
77.88 10.00000 3.61660 8716.00000 43876.00000
77.90 10.00000 3.60574 8764.00000 43934.00000
77.92 6.00000 3.60574 8918.00000 44002.00000
77.94 4.00000 3.61660 8804.00000 43904.00000
77.96 6.00000 3.61660 8820.00000 43916.00000
77.98 6.00000 3.60574 8836.00000 43842.00000
78.00 4.00000 3.60574 8790.00000 43742.00000
78.02 6.00000 3.60574 8692.00000 43520.00000
78.04 8.00000 3.59489 8558.00000 43598.00000
78.06 6.00000 3.61660 8592.00000 43582.00000
78.08 6.00000 3.61660 8574.00000 43646.00000
78.10 10.00000 3.59489 8384.00000 43644.00000
78.12 12.00000 3.59489 8320.00000 43704.00000
78.14 8.00000 3.61660 8308.00000 43654.00000
78.16 10.00000 3.61660 8446.00000 43668.00000
78.18 16.00000 3.61660 8550.00000 43494.00000
78.20 14.00000 3.60574 8552.00000 43528.00000
78.22 14.00000 3.60574 8374.00000 43332.00000
78.24 14.00000 3.60574 8320.00000 43496.00000
78.26 10.00000 3.62746 8074.00000 43670.00000
78.28 10.00000 3.61660 7894.00000 43928.00000
78.30 18.00000 3.61660 7712.00000 43948.00000
78.32 16.00000 3.61660 7766.00000 43650.00000
78.34 22.00000 3.61660 7816.00000 42836.00000
78.36 16.00000 3.60574 7726.00000 42538.00000
78.38 10.00000 3.60574 7768.00000 42132.00000
78.40 10.00000 3.60574 7620.00000 42240.00000
78.42 14.00000 3.63831 7438.00000 42176.00000
78.44 14.00000 3.62746 7422.00000 42330.00000
78.46 16.00000 3.60574 7530.00000 42610.00000
78.48 14.00000 3.58403 7610.00000 43060.00000
78.50 16.00000 3.58403 7498.00000 43448.00000
78.52 12.00000 3.58403 7704.00000 43712.00000
78.54 10.00000 3.58403 7910.00000 43988.00000
78.56 6.00000 3.58403 8244.00000 44134.00000
78.58 6.00000 3.56232 8386.00000 43942.00000
78.60 6.00000 3.54061 8572.00000 43926.00000
78.62 8.00000 3.52975 8624.00000 43914.00000
78.64 14.00000 3.54061 8656.00000 43900.00000
78.66 8.00000 3.56232 8740.00000 43876.00000
78.68 8.00000 3.58403 8720.00000 43822.00000
78.70 8.00000 3.58403 8656.00000 43530.00000
78.72 6.00000 3.58403 8628.00000 43552.00000
78.74 6.00000 3.58403 8644.00000 43888.00000
78.76 4.00000 3.58403 8724.00000 44108.00000
78.78 4.00000 3.58403 8762.00000 44220.00000
78.80 6.00000 3.58403 8842.00000 44162.00000
78.82 10.00000 3.58403 8960.00000 44132.00000
78.84 4.00000 3.58403 9048.00000 44008.00000
78.86 2.00000 3.60574 8868.00000 43980.00000
78.88 2.00000 3.62746 8748.00000 43802.00000
78.90 4.00000 3.63831 8730.00000 43862.00000
78.92 6.00000 3.63831 9024.00000 43920.00000
78.94 2.00000 3.63831 8942.00000 43928.00000
78.96 0.00000 3.63831 8834.00000 43902.00000
78.98 0.00000 3.63831 8704.00000 43696.00000
79.00 4.00000 3.62746 8826.00000 43834.00000
79.02 8.00000 3.61660 8846.00000 43904.00000
79.04 8.00000 3.59489 8850.00000 44100.00000
79.06 4.00000 3.58403 8818.00000 44106.00000
79.08 2.00000 3.58403 8796.00000 44050.00000
79.10 6.00000 3.58403 8752.00000 43876.00000
79.12 4.00000 3.60574 8742.00000 43800.00000
79.14 4.00000 3.62746 8828.00000 43994.00000
79.16 2.00000 3.61660 8812.00000 44080.00000
79.18 2.00000 3.58403 8996.00000 43708.00000
79.20 2.00000 3.56232 9058.00000 43638.00000
79.22 2.00000 3.56232 8982.00000 43494.00000
79.24 4.00000 3.60574 8828.00000 43626.00000
79.26 6.00000 3.62746 8854.00000 43878.00000
79.28 4.00000 3.63831 8938.00000 43992.00000
79.30 2.00000 3.63831 8890.00000 44080.00000
79.32 8.00000 3.63831 8916.00000 43964.00000
79.34 6.00000 3.63831 8910.00000 44232.00000
79.36 4.00000 3.63831 8838.00000 44036.00000
79.38 4.00000 3.61660 8672.00000 44084.00000
79.40 6.00000 3.58403 8562.00000 43898.00000
79.42 8.00000 3.57318 8518.00000 44234.00000
79.44 4.00000 3.59489 8526.00000 44238.00000
79.46 4.00000 3.61660 8336.00000 43762.00000
79.48 4.00000 3.63831 8134.00000 43756.00000
79.50 8.00000 3.61660 7946.00000 44018.00000
79.52 14.00000 3.59489 7678.00000 43802.00000
79.54 14.00000 3.59489 7646.00000 43350.00000
79.56 10.00000 3.61660 7296.00000 42914.00000
79.58 10.00000 3.61660 6926.00000 42436.00000
79.60 10.00000 3.58403 6698.00000 41770.00000
79.62 10.00000 3.57318 6776.00000 41284.00000
79.64 12.00000 3.59489 6710.00000 41080.00000
79.66 14.00000 3.61660 6680.00000 41152.00000
79.68 12.00000 3.60574 6720.00000 41144.00000
79.70 10.00000 3.57318 6814.00000 41248.00000
79.72 12.00000 3.58403 6912.00000 41838.00000
79.74 12.00000 3.61660 6892.00000 42674.00000
79.76 12.00000 3.62746 6954.00000 43548.00000
79.78 12.00000 3.59489 7168.00000 43664.00000
79.80 12.00000 3.57318 7230.00000 43602.00000
79.82 4.00000 3.59489 7356.00000 43398.00000
79.84 6.00000 3.61660 7604.00000 43720.00000
79.86 10.00000 3.60574 7992.00000 43954.00000
79.88 10.00000 3.57318 8286.00000 43932.00000
79.90 10.00000 3.58403 8308.00000 43978.00000
79.92 8.00000 3.61660 8408.00000 44082.00000
79.94 8.00000 3.62746 8514.00000 43914.00000
79.96 8.00000 3.60574 8770.00000 43760.00000
79.98 8.00000 3.57318 8878.00000 43944.00000
80.00 8.00000 3.58403 8760.00000 44128.00000
80.02 8.00000 3.61660 8522.00000 44090.00000
80.04 6.00000 3.62746 8608.00000 43432.00000
80.06 4.00000 3.60574 8640.00000 43494.00000
80.08 0.00000 3.58403 8660.00000 43626.00000
80.10 0.00000 3.59489 8778.00000 43994.00000
80.12 4.00000 3.60574 8860.00000 43932.00000
80.14 4.00000 3.59489 8570.00000 43682.00000
80.16 0.00000 3.57318 8558.00000 43774.00000
80.18 0.00000 3.58403 8604.00000 44312.00000
80.20 0.00000 3.61660 8806.00000 44346.00000
80.22 2.00000 3.61660 8762.00000 44288.00000
80.24 4.00000 3.58403 8748.00000 43910.00000
80.26 2.00000 3.57318 8754.00000 44008.00000
80.28 4.00000 3.60574 8788.00000 44030.00000
80.30 8.00000 3.61660 8826.00000 43802.00000
80.32 8.00000 3.59489 8876.00000 43696.00000
80.34 8.00000 3.57318 8914.00000 44012.00000
80.36 4.00000 3.59489 8966.00000 43928.00000
80.38 2.00000 3.59489 8824.00000 43692.00000
80.40 2.00000 3.59489 8634.00000 43386.00000
80.42 2.00000 3.57318 8644.00000 43322.00000
80.44 2.00000 3.59489 8742.00000 43604.00000
80.46 2.00000 3.59489 8968.00000 44110.00000
80.48 4.00000 3.59489 9016.00000 43870.00000
80.50 2.00000 3.59489 8876.00000 43702.00000
80.52 2.00000 3.59489 8870.00000 43520.00000
80.54 2.00000 3.59489 8850.00000 43556.00000
80.56 4.00000 3.59489 8998.00000 43632.00000
80.58 6.00000 3.60574 8910.00000 44364.00000
