~Version Information
VERS.             2.0: LAS Version 2.0
WRAP.             NO: One Line per depth step
~Well Information Block
STRT.M                0.22: Start Depth
STOP.M                100.84: Stop Depth
STEP.M                0.02: Start Depth
NULL.                    -999:NULL VALUE
COMP.                PT.BGG: COMPANY
WELL.                DH-09-05C1:
FLD.                 MUARA LAWAI: FIELD
UWI.                 uwi: UWI
LOC.                 location: LOCATION
PROV.                SOUTH SUMATERA: PROVINCE
CNTY.                indonesia: COUNTRY
SRVC.                RescaLog: SERVICE COMPANY
DATE.                06-04-2021 09:37:27: LOG DATE
~Curve Information Block
DEPT.M        :DEPTH
GR.CPS                  :Gamma Ray
CL.CPS                  :Caliper
LD.CPS                  :Long Density
SD.CPS                  :Short Density
#DATA
~A
# ...
24.74 42.00000 4.60448 4654.00000 42322.00000
24.76 52.00000 4.57191 4718.00000 42310.00000
24.78 70.00000 4.55020 4648.00000 41792.00000
24.80 78.00000 4.53935 4634.00000 41690.00000
24.82 60.00000 4.55020 4512.00000 41632.00000
24.84 38.00000 4.59362 4534.00000 42148.00000
24.86 54.00000 4.60448 4468.00000 42080.00000
24.88 52.00000 4.59362 4490.00000 42210.00000
24.90 64.00000 4.57191 4418.00000 41824.00000
24.92 54.00000 4.55020 4396.00000 41304.00000
24.94 58.00000 4.55020 4384.00000 40530.00000
24.96 64.00000 4.56106 4374.00000 40388.00000
24.98 54.00000 4.58277 4334.00000 40108.00000
25.00 50.00000 4.60448 4256.00000 40008.00000
25.02 38.00000 4.61534 4276.00000 39804.00000
25.04 44.00000 4.59362 4302.00000 40018.00000
25.06 42.00000 4.56106 4318.00000 39902.00000
25.08 40.00000 4.55020 4398.00000 39872.00000
25.10 36.00000 4.56106 4426.00000 39304.00000
25.12 40.00000 4.59362 4428.00000 39308.00000
25.14 36.00000 4.59362 4434.00000 39196.00000
25.16 38.00000 4.58277 4392.00000 39166.00000
25.18 38.00000 4.57191 4512.00000 38934.00000
25.20 46.00000 4.56106 4446.00000 38788.00000
25.22 44.00000 4.57191 4462.00000 38926.00000
25.24 40.00000 4.57191 4502.00000 38972.00000
25.26 42.00000 4.57191 4512.00000 38986.00000
25.28 34.00000 4.57191 4494.00000 38732.00000
25.30 44.00000 4.56106 4294.00000 39078.00000
25.32 36.00000 4.56106 4266.00000 39170.00000
25.34 42.00000 4.57191 4206.00000 39166.00000
25.36 50.00000 4.57191 4250.00000 39086.00000
25.38 54.00000 4.56106 4326.00000 38826.00000
25.40 60.00000 4.57191 4444.00000 39374.00000
25.42 56.00000 4.56106 4468.00000 39462.00000
25.44 54.00000 4.56106 4444.00000 39656.00000
25.46 34.00000 4.55020 4432.00000 39350.00000
25.48 22.00000 4.57191 4490.00000 39446.00000
25.50 38.00000 4.56106 4680.00000 39824.00000
25.52 50.00000 4.57191 4712.00000 40198.00000
25.54 52.00000 4.57191 4754.00000 40602.00000
25.56 40.00000 4.56106 4732.00000 40688.00000
25.58 30.00000 4.55020 4690.00000 41002.00000
25.60 28.00000 4.53935 4726.00000 40850.00000
25.62 30.00000 4.55020 4754.00000 40824.00000
25.64 30.00000 4.55020 4948.00000 40276.00000
25.66 40.00000 4.55020 4956.00000 40224.00000
25.68 36.00000 4.55020 4998.00000 39926.00000
25.70 38.00000 4.55020 4780.00000 39460.00000
25.72 34.00000 4.56106 4872.00000 39404.00000
25.74 36.00000 4.57191 4838.00000 39314.00000
25.76 30.00000 4.59362 4842.00000 39658.00000
25.78 44.00000 4.61534 4800.00000 39662.00000
25.80 44.00000 4.60448 4776.00000 39634.00000
25.82 44.00000 4.57191 4726.00000 39752.00000
25.84 48.00000 4.55020 4648.00000 39518.00000
25.86 36.00000 4.55020 4444.00000 40020.00000
25.88 40.00000 4.58277 4390.00000 40152.00000
25.90 36.00000 4.59362 4488.00000 40374.00000
25.92 48.00000 4.61534 4490.00000 40414.00000
25.94 52.00000 4.61534 4492.00000 40622.00000
25.96 56.00000 4.61534 4330.00000 40504.00000
25.98 44.00000 4.61534 4284.00000 40438.00000
26.00 36.00000 4.61534 4194.00000 40068.00000
26.02 26.00000 4.61534 4128.00000 39976.00000
26.04 18.00000 4.61534 4090.00000 39986.00000
26.06 28.00000 4.61534 4146.00000 39884.00000
26.08 18.00000 4.59362 4076.00000 39868.00000
26.10 22.00000 4.58277 4042.00000 39388.00000
26.12 8.00000 4.55020 3872.00000 38894.00000
26.14 12.00000 4.53935 3930.00000 38622.00000
26.16 24.00000 4.53935 3864.00000 38932.00000
26.18 44.00000 4.55020 3872.00000 38740.00000
26.20 40.00000 4.57191 3904.00000 38962.00000
26.22 30.00000 4.59362 4036.00000 38660.00000
26.24 24.00000 4.61534 4050.00000 38752.00000
26.26 30.00000 4.61534 3854.00000 39066.00000
26.28 46.00000 4.60448 3762.00000 39036.00000
26.30 44.00000 4.58277 3702.00000 39198.00000
26.32 38.00000 4.57191 3902.00000 39134.00000
26.34 34.00000 4.53935 3996.00000 39052.00000
26.36 40.00000 4.53935 4030.00000 38816.00000
26.38 40.00000 4.53935 3944.00000 38712.00000
26.40 34.00000 4.57191 3908.00000 38604.00000
26.42 36.00000 4.58277 3688.00000 38738.00000
26.44 48.00000 4.60448 3620.00000 38644.00000
26.46 44.00000 4.61534 3664.00000 38444.00000
26.48 44.00000 4.61534 3726.00000 37878.00000
26.50 48.00000 4.59362 3750.00000 37910.00000
26.52 46.00000 4.58277 3622.00000 37834.00000
26.54 58.00000 4.56106 3704.00000 37824.00000
26.56 56.00000 4.55020 3580.00000 37672.00000
26.58 62.00000 4.53935 3660.00000 37606.00000
26.60 50.00000 4.53935 3700.00000 37888.00000
26.62 44.00000 4.53935 3804.00000 37860.00000
26.64 40.00000 4.56106 3818.00000 37804.00000
26.66 34.00000 4.56106 3806.00000 37826.00000
26.68 44.00000 4.56106 3770.00000 38138.00000
26.70 46.00000 4.56106 3804.00000 38424.00000
26.72 60.00000 4.56106 3836.00000 38802.00000
26.74 42.00000 4.56106 3902.00000 39142.00000
26.76 38.00000 4.56106 4076.00000 39126.00000
26.78 32.00000 4.56106 4156.00000 39240.00000
26.80 42.00000 4.55020 4270.00000 39160.00000
26.82 42.00000 4.52849 4172.00000 39276.00000
26.84 36.00000 4.51763 4228.00000 39376.00000
26.86 28.00000 4.51763 4134.00000 39006.00000
26.88 36.00000 4.52849 4284.00000 38898.00000
26.90 52.00000 4.55020 4294.00000 39082.00000
26.92 54.00000 4.56106 4352.00000 39142.00000
26.94 56.00000 4.56106 4396.00000 39234.00000
26.96 58.00000 4.56106 4374.00000 39016.00000
26.98 60.00000 4.56106 4460.00000 39160.00000
27.00 56.00000 4.55020 4310.00000 39178.00000
27.02 58.00000 4.52849 4438.00000 39420.00000
27.04 54.00000 4.51763 4480.00000 39388.00000
27.06 56.00000 4.51763 4620.00000 39592.00000
27.08 62.00000 4.53935 4594.00000 39674.00000
27.10 56.00000 4.55020 4660.00000 40030.00000
27.12 56.00000 4.58277 4664.00000 39996.00000
27.14 42.00000 4.59362 4746.00000 39854.00000
27.16 50.00000 4.60448 4644.00000 39706.00000
27.18 42.00000 4.58277 4530.00000 39334.00000
27.20 46.00000 4.56106 4480.00000 39276.00000
27.22 44.00000 4.52849 4574.00000 39366.00000
27.24 44.00000 4.52849 4644.00000 39504.00000
27.26 34.00000 4.55020 4564.00000 39424.00000
27.28 32.00000 4.58277 4464.00000 39376.00000
27.30 32.00000 4.59362 4368.00000 39420.00000
27.32 40.00000 4.60448 4240.00000 39558.00000
27.34 44.00000 4.61534 4322.00000 39662.00000
27.36 56.00000 4.61534 4240.00000 39674.00000
27.38 56.00000 4.60448 4312.00000 39576.00000
27.40 42.00000 4.58277 4388.00000 39616.00000
27.42 22.00000 4.53935 4354.00000 39598.00000
27.44 12.00000 4.51763 4428.00000 39678.00000
27.46 24.00000 4.53935 4346.00000 39368.00000
27.48 32.00000 4.58277 4324.00000 39434.00000
27.50 36.00000 4.60448 4220.00000 39536.00000
27.52 34.00000 4.60448 4236.00000 39518.00000
27.54 34.00000 4.60448 4274.00000 39536.00000
27.56 38.00000 4.59362 4344.00000 39448.00000
27.58 28.00000 4.60448 4268.00000 39434.00000
27.60 28.00000 4.60448 4248.00000 39614.00000
27.62 24.00000 4.61534 4322.00000 39648.00000
27.64 40.00000 4.61534 4494.00000 40002.00000
27.66 38.00000 4.61534 4624.00000 39976.00000
27.68 32.00000 4.61534 4636.00000 40042.00000
27.70 36.00000 4.61534 4532.00000 40346.00000
27.72 36.00000 4.61534 4404.00000 40582.00000
27.74 38.00000 4.61534 4432.00000 40590.00000
27.76 28.00000 4.59362 4426.00000 40466.00000
27.78 28.00000 4.59362 4442.00000 40508.00000
27.80 32.00000 4.59362 4410.00000 40588.00000
27.82 40.00000 4.60448 4518.00000 40572.00000
27.84 36.00000 4.61534 4444.00000 40794.00000
27.86 42.00000 4.63705 4494.00000 41064.00000
27.88 42.00000 4.71304 4428.00000 41150.00000
27.90 36.00000 4.74561 4422.00000 40638.00000
27.92 32.00000 4.79989 4426.00000 40080.00000
27.94 26.00000 4.79989 4376.00000 39794.00000
27.96 34.00000 4.78903 4418.00000 39898.00000
27.98 32.00000 4.78903 4460.00000 39928.00000
28.00 40.00000 4.78903 4396.00000 39992.00000
28.02 38.00000 4.79989 4292.00000 39802.00000
28.04 38.00000 4.78903 4204.00000 39792.00000
28.06 34.00000 4.78903 4228.00000 39920.00000
28.08 44.00000 4.77817 4152.00000 39764.00000
28.10 58.00000 4.76732 4162.00000 39582.00000
28.12 70.00000 4.76732 3972.00000 39506.00000
28.14 66.00000 4.78903 4014.00000 39610.00000
28.16 48.00000 4.81074 4030.00000 39588.00000
28.18 30.00000 4.83245 4070.00000 39648.00000
28.20 24.00000 4.83245 4146.00000 39262.00000
