~Version Information
VERS.             2.0: LAS Version 2.0
WRAP.             NO: One Line per depth step
~Well Information Block
STRT.M                0.22: Start Depth
STOP.M                100.84: Stop Depth
STEP.M                0.02: Start Depth
NULL.                    -999:NULL VALUE
COMP.                PT.BGG: COMPANY
WELL.                DH-09-05C1:
FLD.                 MUARA LAWAI: FIELD
UWI.                 uwi: UWI
LOC.                 location: LOCATION
PROV.                SOUTH SUMATERA: PROVINCE
CNTY.                indonesia: COUNTRY
SRVC.                RescaLog: SERVICE COMPANY
DATE.                06-04-2021 09:37:27: LOG DATE
~Curve Information Block
DEPT.M        :DEPTH
GR.CPS                  :Gamma Ray
CL.CPS                  :Caliper
LD.CPS                  :Long Density
SD.CPS                  :Short Density
#DATA
~A
# ...
84.12 30.00000 3.60574 6106.00000 42604.00000
84.14 40.00000 3.60574 6242.00000 43226.00000
84.16 40.00000 3.60574 6594.00000 43650.00000
84.18 28.00000 3.59489 6752.00000 43954.00000
84.20 20.00000 3.59489 6798.00000 44038.00000
84.22 22.00000 3.60574 6694.00000 44314.00000
84.24 30.00000 3.59489 6776.00000 43868.00000
84.26 24.00000 3.59489 6604.00000 43192.00000
84.28 18.00000 3.58403 6412.00000 42414.00000
84.30 24.00000 3.57318 6314.00000 41112.00000
84.32 20.00000 3.61660 6300.00000 40062.00000
84.34 18.00000 3.62746 6338.00000 39266.00000
84.36 14.00000 3.60574 6444.00000 38808.00000
84.38 14.00000 3.58403 6236.00000 38888.00000
84.40 20.00000 3.57318 6042.00000 39550.00000
84.42 30.00000 3.58403 5984.00000 40838.00000
84.44 24.00000 3.57318 5900.00000 41820.00000
84.46 26.00000 3.57318 6022.00000 42666.00000
84.48 16.00000 3.61660 6288.00000 42994.00000
84.50 14.00000 3.61660 6666.00000 43410.00000
84.52 18.00000 3.58403 6958.00000 43426.00000
84.54 18.00000 3.57318 7502.00000 43414.00000
84.56 20.00000 3.57318 7874.00000 43568.00000
84.58 18.00000 3.58403 8140.00000 43754.00000
84.60 10.00000 3.59489 8586.00000 43632.00000
84.62 10.00000 3.60574 8556.00000 43130.00000
84.64 12.00000 3.60574 8384.00000 43416.00000
84.66 16.00000 3.60574 8210.00000 43638.00000
84.68 12.00000 3.59489 8244.00000 43734.00000
84.70 12.00000 3.60574 8226.00000 43750.00000
84.72 12.00000 3.58403 8216.00000 43744.00000
84.74 10.00000 3.59489 8300.00000 44018.00000
84.76 8.00000 3.61660 8294.00000 43980.00000
84.78 6.00000 3.61660 8280.00000 43866.00000
84.80 14.00000 3.58403 8398.00000 43808.00000
84.82 12.00000 3.57318 8272.00000 43342.00000
84.84 22.00000 3.58403 8190.00000 43222.00000
84.86 22.00000 3.57318 8302.00000 43340.00000
84.88 20.00000 3.57318 8342.00000 43712.00000
84.90 20.00000 3.57318 8204.00000 43342.00000
84.92 22.00000 3.58403 8114.00000 43720.00000
84.94 28.00000 3.58403 7682.00000 44246.00000
84.96 20.00000 3.58403 7284.00000 44308.00000
84.98 18.00000 3.58403 6986.00000 44226.00000
85.00 20.00000 3.57318 6980.00000 44292.00000
85.02 16.00000 3.55146 7078.00000 43744.00000
85.04 18.00000 3.55146 6922.00000 42728.00000
85.06 12.00000 3.57318 6698.00000 41202.00000
85.08 12.00000 3.58403 6596.00000 40196.00000
85.10 16.00000 3.58403 6726.00000 39446.00000
85.12 20.00000 3.58403 6608.00000 39182.00000
85.14 18.00000 3.58403 6654.00000 39558.00000
85.16 22.00000 3.58403 6526.00000 40676.00000
85.18 20.00000 3.58403 6196.00000 42126.00000
85.20 18.00000 3.58403 6386.00000 43478.00000
85.22 20.00000 3.58403 6670.00000 43914.00000
85.24 28.00000 3.58403 7196.00000 43608.00000
85.26 28.00000 3.58403 7602.00000 43820.00000
85.28 16.00000 3.58403 7922.00000 44020.00000
85.30 4.00000 3.57318 8244.00000 44324.00000
85.32 8.00000 3.57318 8348.00000 44192.00000
85.34 10.00000 3.56232 8534.00000 43942.00000
85.36 8.00000 3.57318 8578.00000 43786.00000
85.38 8.00000 3.57318 8650.00000 43902.00000
85.40 6.00000 3.58403 8756.00000 43950.00000
85.42 6.00000 3.58403 8910.00000 43756.00000
85.44 8.00000 3.57318 8916.00000 43616.00000
85.46 4.00000 3.58403 8790.00000 43528.00000
85.48 4.00000 3.58403 8848.00000 43872.00000
85.50 6.00000 3.58403 8776.00000 44062.00000
85.52 4.00000 3.58403 8650.00000 43928.00000
85.54 2.00000 3.58403 8624.00000 43662.00000
85.56 4.00000 3.58403 8832.00000 43756.00000
85.58 8.00000 3.57318 8710.00000 43610.00000
85.60 10.00000 3.57318 8566.00000 43754.00000
85.62 10.00000 3.58403 8494.00000 43816.00000
85.64 4.00000 3.58403 8414.00000 43312.00000
85.66 4.00000 3.58403 8596.00000 43378.00000
85.68 2.00000 3.58403 8860.00000 43458.00000
85.70 2.00000 3.59489 8860.00000 43402.00000
85.72 2.00000 3.60574 8646.00000 43708.00000
85.74 2.00000 3.58403 8682.00000 43936.00000
85.76 2.00000 3.56232 8866.00000 43758.00000
85.78 4.00000 3.57318 8922.00000 43822.00000
85.80 2.00000 3.56232 8912.00000 44028.00000
85.82 2.00000 3.56232 8902.00000 44108.00000
85.84 6.00000 3.57318 8946.00000 44048.00000
85.86 10.00000 3.57318 8846.00000 43830.00000
85.88 10.00000 3.56232 8624.00000 43916.00000
85.90 6.00000 3.56232 8662.00000 44126.00000
85.92 4.00000 3.56232 8836.00000 44156.00000
85.94 6.00000 3.56232 8756.00000 43928.00000
85.96 2.00000 3.56232 8712.00000 44100.00000
85.98 2.00000 3.55146 8842.00000 43932.00000
86.00 2.00000 3.56232 8926.00000 43730.00000
86.02 2.00000 3.56232 9030.00000 44060.00000
86.04 2.00000 3.56232 9072.00000 44338.00000
86.06 4.00000 3.56232 9068.00000 44080.00000
86.08 2.00000 3.56232 9074.00000 43926.00000
86.10 4.00000 3.57318 9166.00000 44130.00000
86.12 6.00000 3.57318 9254.00000 44454.00000
86.14 4.00000 3.56232 9134.00000 44188.00000
86.16 2.00000 3.56232 9086.00000 44292.00000
86.18 2.00000 3.57318 8950.00000 44076.00000
86.20 4.00000 3.56232 9242.00000 44184.00000
86.22 4.00000 3.57318 9354.00000 44134.00000
86.24 2.00000 3.56232 9192.00000 44064.00000
86.26 4.00000 3.57318 9220.00000 44202.00000
86.28 6.00000 3.57318 9222.00000 44266.00000
86.30 6.00000 3.55146 9096.00000 44406.00000
86.32 6.00000 3.55146 9038.00000 44232.00000
86.34 4.00000 3.56232 9030.00000 44102.00000
86.36 4.00000 3.56232 9170.00000 44090.00000
86.38 0.00000 3.57318 9256.00000 44232.00000
86.40 2.00000 3.57318 9280.00000 44390.00000
86.42 4.00000 3.57318 9264.00000 44364.00000
86.44 4.00000 3.57318 9270.00000 44260.00000
86.46 2.00000 3.57318 9128.00000 44038.00000
86.48 2.00000 3.56232 8914.00000 43716.00000
86.50 2.00000 3.57318 8854.00000 44110.00000
86.52 2.00000 3.57318 8948.00000 43858.00000
86.54 2.00000 3.56232 9172.00000 43784.00000
86.56 0.00000 3.57318 9282.00000 44240.00000
86.58 2.00000 3.58403 9114.00000 44466.00000
86.60 2.00000 3.58403 9070.00000 44298.00000
86.62 4.00000 3.58403 8986.00000 44118.00000
86.64 4.00000 3.57318 8912.00000 44042.00000
86.66 2.00000 3.57318 8904.00000 43956.00000
86.68 2.00000 3.58403 8698.00000 44038.00000
86.70 4.00000 3.57318 8694.00000 44360.00000
86.72 4.00000 3.57318 8910.00000 44242.00000
86.74 6.00000 3.57318 9004.00000 43884.00000
86.76 6.00000 3.57318 8900.00000 43976.00000
86.78 2.00000 3.57318 8762.00000 43596.00000
86.80 6.00000 3.58403 8642.00000 43732.00000
86.82 8.00000 3.57318 8784.00000 43844.00000
86.84 6.00000 3.56232 8738.00000 44012.00000
86.86 8.00000 3.56232 8622.00000 44050.00000
86.88 6.00000 3.56232 8746.00000 43928.00000
86.90 4.00000 3.57318 8658.00000 43824.00000
86.92 2.00000 3.58403 8438.00000 43680.00000
86.94 2.00000 3.57318 8268.00000 44110.00000
86.96 2.00000 3.56232 8278.00000 43972.00000
86.98 4.00000 3.56232 8398.00000 43644.00000
87.00 6.00000 3.57318 8080.00000 43296.00000
87.02 12.00000 3.57318 8002.00000 43256.00000
87.04 14.00000 3.57318 8148.00000 43128.00000
87.06 12.00000 3.58403 8216.00000 43084.00000
87.08 10.00000 3.57318 8084.00000 42798.00000
87.10 12.00000 3.57318 8060.00000 42866.00000
87.12 12.00000 3.58403 8222.00000 43418.00000
87.14 8.00000 3.58403 8138.00000 43556.00000
87.16 4.00000 3.58403 8116.00000 43640.00000
87.18 6.00000 3.57318 8242.00000 43480.00000
87.20 6.00000 3.57318 8330.00000 43528.00000
87.22 6.00000 3.57318 8506.00000 43452.00000
87.24 8.00000 3.57318 8866.00000 43792.00000
87.26 6.00000 3.57318 8812.00000 44100.00000
87.28 4.00000 3.58403 8726.00000 43880.00000
87.30 2.00000 3.58403 8688.00000 43784.00000
87.32 4.00000 3.58403 8730.00000 43446.00000
87.34 4.00000 3.58403 8926.00000 43892.00000
87.36 4.00000 3.58403 8876.00000 43710.00000
87.38 4.00000 3.58403 8880.00000 43686.00000
87.40 10.00000 3.58403 8936.00000 43992.00000
87.42 6.00000 3.58403 8882.00000 44318.00000
87.44 2.00000 3.57318 8930.00000 44202.00000
87.46 0.00000 3.57318 9010.00000 44230.00000
87.48 0.00000 3.58403 9078.00000 44364.00000
87.50 6.00000 3.58403 9146.00000 44070.00000
87.52 12.00000 3.57318 9078.00000 43960.00000
87.54 10.00000 3.57318 8974.00000 44060.00000
87.56 8.00000 3.57318 8830.00000 43972.00000
87.58 4.00000 3.57318 8832.00000 44050.00000
87.60 6.00000 3.57318 8862.00000 44034.00000
87.62 4.00000 3.57318 9016.00000 44154.00000
87.64 2.00000 3.55146 9110.00000 44172.00000
