~Version Information
VERS.             2.0: LAS Version 2.0
WRAP.             NO: One Line per depth step
~Well Information Block
STRT.M                0.22: Start Depth
STOP.M                100.84: Stop Depth
STEP.M                0.02: Start Depth
NULL.                    -999:NULL VALUE
COMP.                PT.BGG: COMPANY
WELL.                DH-09-05C1:
FLD.                 MUARA LAWAI: FIELD
UWI.                 uwi: UWI
LOC.                 location: LOCATION
PROV.                SOUTH SUMATERA: PROVINCE
CNTY.                indonesia: COUNTRY
SRVC.                RescaLog: SERVICE COMPANY
DATE.                06-04-2021 09:37:27: LOG DATE
~Curve Information Block
DEPT.M        :DEPTH
GR.CPS                  :Gamma Ray
CL.CPS                  :Caliper
LD.CPS                  :Long Density
SD.CPS                  :Short Density
#DATA
~A
# ...
73.52 4.00000 3.63831 9132.00000 44296.00000
73.54 4.00000 3.63831 9048.00000 44070.00000
73.56 2.00000 3.63831 9098.00000 44140.00000
73.58 2.00000 3.63831 9164.00000 43884.00000
73.60 4.00000 3.63831 9114.00000 43816.00000
73.62 6.00000 3.63831 8980.00000 43628.00000
73.64 2.00000 3.59489 9230.00000 43908.00000
73.66 4.00000 3.57318 9314.00000 43752.00000
73.68 4.00000 3.59489 9166.00000 43496.00000
73.70 4.00000 3.62746 9054.00000 43818.00000
73.72 2.00000 3.62746 9082.00000 43798.00000
73.74 2.00000 3.62746 9172.00000 44128.00000
73.76 4.00000 3.61660 9154.00000 44192.00000
73.78 4.00000 3.60574 9022.00000 44068.00000
73.80 6.00000 3.60574 9242.00000 43936.00000
73.82 12.00000 3.60574 9202.00000 43516.00000
73.84 12.00000 3.61660 9044.00000 43696.00000
73.86 8.00000 3.60574 8990.00000 44314.00000
73.88 4.00000 3.61660 9004.00000 44276.00000
73.90 6.00000 3.62746 8840.00000 44064.00000
73.92 10.00000 3.61660 8956.00000 43672.00000
73.94 10.00000 3.61660 8860.00000 43766.00000
73.96 8.00000 3.62746 8824.00000 43602.00000
73.98 4.00000 3.62746 8834.00000 43706.00000
74.00 6.00000 3.60574 8854.00000 43542.00000
74.02 6.00000 3.60574 8690.00000 43620.00000
74.04 8.00000 3.62746 8754.00000 43640.00000
74.06 10.00000 3.63831 8984.00000 43532.00000
74.08 12.00000 3.63831 9024.00000 43544.00000
74.10 12.00000 3.62746 8996.00000 43710.00000
74.12 12.00000 3.60574 8938.00000 43914.00000
74.14 10.00000 3.59489 8770.00000 44134.00000
74.16 12.00000 3.60574 8290.00000 44130.00000
74.18 10.00000 3.62746 7994.00000 44310.00000
74.20 12.00000 3.62746 7780.00000 44070.00000
74.22 10.00000 3.61660 7704.00000 43942.00000
74.24 10.00000 3.60574 7748.00000 43664.00000
74.26 8.00000 3.61660 7636.00000 43258.00000
74.28 4.00000 3.59489 7402.00000 42538.00000
74.30 8.00000 3.61660 7322.00000 41978.00000
74.32 14.00000 3.62746 7310.00000 41746.00000
74.34 18.00000 3.60574 7196.00000 41096.00000
74.36 12.00000 3.60574 7108.00000 40464.00000
74.38 12.00000 3.62746 7024.00000 41208.00000
74.40 12.00000 3.60574 7020.00000 42348.00000
74.42 6.00000 3.61660 7144.00000 43322.00000
74.44 12.00000 3.61660 7118.00000 43714.00000
74.46 10.00000 3.60574 7144.00000 43898.00000
74.48 10.00000 3.60574 7412.00000 44228.00000
74.50 12.00000 3.61660 7836.00000 44000.00000
74.52 14.00000 3.62746 8166.00000 43920.00000
74.54 10.00000 3.63831 8302.00000 43978.00000
74.56 10.00000 3.62746 8410.00000 43582.00000
74.58 8.00000 3.61660 8578.00000 43190.00000
74.60 6.00000 3.60574 8460.00000 43390.00000
74.62 12.00000 3.60574 8616.00000 43518.00000
74.64 12.00000 3.61660 8634.00000 43856.00000
74.66 8.00000 3.62746 8710.00000 43804.00000
74.68 4.00000 3.62746 8614.00000 43660.00000
74.70 8.00000 3.60574 8856.00000 43502.00000
74.72 4.00000 3.58403 8826.00000 43852.00000
74.74 0.00000 3.58403 8796.00000 44086.00000
74.76 2.00000 3.60574 8610.00000 44056.00000
74.78 4.00000 3.62746 8512.00000 44202.00000
74.80 4.00000 3.63831 8644.00000 44226.00000
74.82 4.00000 3.62746 8690.00000 43754.00000
74.84 4.00000 3.60574 8754.00000 43468.00000
74.86 4.00000 3.60574 8880.00000 43700.00000
74.88 0.00000 3.61660 8994.00000 44106.00000
74.90 0.00000 3.62746 8772.00000 44304.00000
74.92 2.00000 3.62746 8888.00000 44480.00000
74.94 8.00000 3.61660 8900.00000 44364.00000
74.96 12.00000 3.61660 8872.00000 44202.00000
74.98 6.00000 3.61660 8718.00000 43994.00000
75.00 6.00000 3.61660 8896.00000 43826.00000
75.02 6.00000 3.62746 8964.00000 43790.00000
75.04 6.00000 3.62746 8940.00000 43524.00000
75.06 6.00000 3.61660 8998.00000 43834.00000
75.08 8.00000 3.59489 8878.00000 43832.00000
75.10 6.00000 3.58403 8764.00000 43834.00000
75.12 2.00000 3.58403 8640.00000 43902.00000
75.14 2.00000 3.60574 8720.00000 44062.00000
75.16 2.00000 3.62746 8826.00000 43830.00000
75.18 4.00000 3.63831 8834.00000 44036.00000
75.20 4.00000 3.62746 8754.00000 43822.00000
75.22 4.00000 3.61660 8664.00000 43712.00000
75.24 8.00000 3.61660 8812.00000 43552.00000
75.26 10.00000 3.60574 9088.00000 43338.00000
75.28 10.00000 3.59489 8924.00000 43484.00000
75.30 8.00000 3.59489 8830.00000 43718.00000
75.32 6.00000 3.60574 8806.00000 43874.00000
75.34 6.00000 3.61660 8768.00000 43322.00000
75.36 4.00000 3.61660 8830.00000 43482.00000
75.38 4.00000 3.61660 9014.00000 43972.00000
75.40 6.00000 3.61660 8898.00000 44064.00000
75.42 6.00000 3.61660 8784.00000 44140.00000
75.44 4.00000 3.61660 8780.00000 44250.00000
75.46 2.00000 3.60574 8912.00000 43806.00000
75.48 2.00000 3.59489 8926.00000 43888.00000
75.50 6.00000 3.59489 8872.00000 44150.00000
75.52 10.00000 3.60574 8702.00000 44068.00000
75.54 8.00000 3.62746 8600.00000 43798.00000
75.56 8.00000 3.63831 8678.00000 43474.00000
75.58 12.00000 3.62746 8642.00000 43686.00000
75.60 10.00000 3.60574 8580.00000 43546.00000
75.62 6.00000 3.61660 8444.00000 43416.00000
75.64 2.00000 3.62746 8380.00000 43556.00000
75.66 8.00000 3.62746 8568.00000 43428.00000
75.68 14.00000 3.61660 8402.00000 43436.00000
75.70 14.00000 3.60574 8436.00000 43552.00000
75.72 10.00000 3.59489 8506.00000 43580.00000
75.74 6.00000 3.60574 8482.00000 43408.00000
75.76 6.00000 3.61660 8620.00000 43394.00000
75.78 4.00000 3.61660 8638.00000 43592.00000
75.80 10.00000 3.61660 8662.00000 43416.00000
75.82 16.00000 3.59489 8600.00000 43640.00000
75.84 14.00000 3.61660 8612.00000 43768.00000
75.86 10.00000 3.59489 8610.00000 43570.00000
75.88 6.00000 3.61660 8742.00000 43662.00000
75.90 6.00000 3.61660 8728.00000 44004.00000
75.92 4.00000 3.62746 8672.00000 43780.00000
75.94 6.00000 3.61660 8524.00000 43586.00000
75.96 4.00000 3.61660 8476.00000 43636.00000
75.98 8.00000 3.62746 8574.00000 43730.00000
76.00 4.00000 3.61660 8626.00000 43506.00000
76.02 6.00000 3.60574 8778.00000 43524.00000
76.04 4.00000 3.60574 8784.00000 43568.00000
76.06 2.00000 3.60574 8712.00000 43374.00000
76.08 0.00000 3.61660 8762.00000 43618.00000
76.10 0.00000 3.61660 8580.00000 43290.00000
76.12 0.00000 3.62746 8518.00000 43234.00000
76.14 8.00000 3.62746 8560.00000 43170.00000
76.16 8.00000 3.63831 8534.00000 43434.00000
76.18 6.00000 3.62746 8664.00000 43494.00000
76.20 4.00000 3.62746 8748.00000 43156.00000
76.22 4.00000 3.62746 8610.00000 43112.00000
76.24 4.00000 3.62746 8660.00000 43336.00000
76.26 4.00000 3.62746 8704.00000 43232.00000
76.28 4.00000 3.61660 8744.00000 42908.00000
76.30 2.00000 3.62746 8664.00000 42978.00000
76.32 0.00000 3.61660 8450.00000 43620.00000
76.34 4.00000 3.61660 8502.00000 44020.00000
76.36 4.00000 3.61660 8646.00000 43836.00000
76.38 4.00000 3.63831 8786.00000 43646.00000
76.40 0.00000 3.61660 8684.00000 43670.00000
76.42 2.00000 3.61660 8576.00000 43774.00000
76.44 2.00000 3.62746 8672.00000 43992.00000
76.46 2.00000 3.62746 8686.00000 44190.00000
76.48 2.00000 3.63831 8982.00000 44128.00000
76.50 2.00000 3.59489 8914.00000 43966.00000
76.52 2.00000 3.58403 8904.00000 44072.00000
76.54 0.00000 3.59489 8750.00000 43642.00000
76.56 2.00000 3.61660 8792.00000 43856.00000
76.58 4.00000 3.62746 8960.00000 43750.00000
76.60 6.00000 3.62746 8980.00000 43862.00000
76.62 2.00000 3.61660 9008.00000 43886.00000
76.64 4.00000 3.61660 8968.00000 43890.00000
76.66 4.00000 3.61660 9056.00000 43892.00000
76.68 4.00000 3.62746 9066.00000 43678.00000
76.70 6.00000 3.61660 9000.00000 43714.00000
76.72 8.00000 3.61660 8962.00000 43662.00000
76.74 8.00000 3.61660 9080.00000 43886.00000
76.76 2.00000 3.61660 9008.00000 44284.00000
76.78 4.00000 3.62746 9064.00000 44386.00000
76.80 4.00000 3.61660 9024.00000 43724.00000
76.82 4.00000 3.60574 9010.00000 43626.00000
76.84 2.00000 3.61660 9098.00000 43902.00000
76.86 4.00000 3.60574 8984.00000 44042.00000
76.88 4.00000 3.59489 8960.00000 44140.00000
76.90 0.00000 3.59489 9094.00000 44050.00000
76.92 0.00000 3.61660 8968.00000 44006.00000
76.94 2.00000 3.61660 8964.00000 43920.00000
76.96 2.00000 3.60574 9072.00000 44224.00000
76.98 2.00000 3.60574 9142.00000 44126.00000
77.00 2.00000 3.61660 9128.00000 44200.00000
77.02 0.00000 3.61660 9070.00000 44262.00000
77.04 2.00000 3.61660 9010.00000 44100.00000
