~Version Information
VERS.             2.0: LAS Version 2.0
WRAP.             NO: One Line per depth step
~Well Information Block
STRT.M                0.22: Start Depth
STOP.M                100.84: Stop Depth
STEP.M                0.02: Start Depth
NULL.                    -999:NULL VALUE
COMP.                PT.BGG: COMPANY
WELL.                DH-09-05C1:
FLD.                 MUARA LAWAI: FIELD
UWI.                 uwi: UWI
LOC.                 location: LOCATION
PROV.                SOUTH SUMATERA: PROVINCE
CNTY.                indonesia: COUNTRY
SRVC.                RescaLog: SERVICE COMPANY
DATE.                06-04-2021 09:37:27: LOG DATE
~Curve Information Block
DEPT.M        :DEPTH
GR.CPS                  :Gamma Ray
CL.CPS                  :Caliper
LD.CPS                  :Long Density
SD.CPS                  :Short Density
#DATA
~A
# ...
7.28 54.00000 5.12556 4972.00000 39562.00000
7.30 38.00000 5.12556 5128.00000 39364.00000
7.32 26.00000 5.11471 5150.00000 39408.00000
7.34 26.00000 5.11471 5268.00000 39150.00000
7.36 44.00000 5.10385 5296.00000 39196.00000
7.38 68.00000 5.12556 5342.00000 39206.00000
7.40 62.00000 5.12556 5438.00000 39262.00000
7.42 60.00000 5.12556 5382.00000 39268.00000
7.44 44.00000 5.11471 5374.00000 39426.00000
7.46 60.00000 5.11471 5366.00000 39588.00000
7.48 66.00000 5.14727 5468.00000 39690.00000
7.50 66.00000 5.14727 5678.00000 39866.00000
7.52 46.00000 5.12556 5676.00000 39940.00000
7.54 34.00000 5.10385 5922.00000 39996.00000
7.56 38.00000 5.09299 6016.00000 40232.00000
7.58 50.00000 5.10385 6254.00000 40324.00000
7.60 56.00000 5.12556 6440.00000 41142.00000
7.62 62.00000 5.14727 6474.00000 41540.00000
7.64 58.00000 5.15813 6562.00000 42764.00000
7.66 46.00000 5.15813 6442.00000 42870.00000
7.68 42.00000 5.15813 6602.00000 43368.00000
7.70 42.00000 5.14727 6510.00000 43590.00000
7.72 48.00000 5.12556 6372.00000 43582.00000
7.74 40.00000 5.10385 6212.00000 43102.00000
7.76 36.00000 5.10385 6180.00000 42804.00000
7.78 20.00000 5.11471 6254.00000 42534.00000
7.80 22.00000 5.12556 6156.00000 42224.00000
7.82 34.00000 5.13642 5840.00000 41746.00000
7.84 48.00000 5.12556 5662.00000 41098.00000
7.86 62.00000 5.12556 5540.00000 40804.00000
7.88 60.00000 5.12556 5456.00000 40570.00000
7.90 56.00000 5.12556 5430.00000 40296.00000
7.92 50.00000 5.14727 5244.00000 40048.00000
7.94 40.00000 5.12556 5206.00000 39734.00000
7.96 42.00000 5.12556 5172.00000 39568.00000
7.98 42.00000 5.11471 5238.00000 39404.00000
8.00 46.00000 5.12556 5012.00000 39560.00000
8.02 36.00000 5.10385 4822.00000 39608.00000
8.04 52.00000 5.12556 4754.00000 39476.00000
8.06 42.00000 5.11471 4856.00000 39274.00000
8.08 54.00000 5.13642 4978.00000 39262.00000
8.10 38.00000 5.12556 4964.00000 39186.00000
8.12 56.00000 5.12556 4888.00000 38902.00000
8.14 58.00000 5.13642 4786.00000 38658.00000
8.16 80.00000 5.11471 4758.00000 38380.00000
8.18 74.00000 5.12556 4794.00000 38584.00000
8.20 68.00000 5.09299 4784.00000 38986.00000
8.22 56.00000 5.11471 4832.00000 39216.00000
8.24 54.00000 5.11471 4900.00000 39252.00000
8.26 60.00000 5.11471 5048.00000 39296.00000
8.28 60.00000 5.13642 5164.00000 39372.00000
8.30 60.00000 5.12556 5562.00000 39692.00000
8.32 58.00000 5.13642 5694.00000 39682.00000
8.34 56.00000 5.11471 6076.00000 39674.00000
8.36 60.00000 5.13642 6128.00000 39902.00000
8.38 44.00000 5.12556 6324.00000 40266.00000
8.40 50.00000 5.12556 6282.00000 41248.00000
8.42 44.00000 5.12556 6306.00000 41724.00000
8.44 40.00000 5.11471 6170.00000 42354.00000
8.46 36.00000 5.13642 6174.00000 42724.00000
8.48 52.00000 5.11471 6122.00000 42930.00000
8.50 56.00000 5.12556 6020.00000 42892.00000
8.52 64.00000 5.12556 5888.00000 42584.00000
8.54 62.00000 5.13642 5776.00000 42120.00000
8.56 54.00000 5.13642 5898.00000 41654.00000
8.58 50.00000 5.12556 6324.00000 40594.00000
8.60 50.00000 5.13642 6572.00000 39358.00000
8.62 56.00000 5.11471 7028.00000 38930.00000
8.64 54.00000 5.12556 7158.00000 38886.00000
8.66 58.00000 5.11471 7242.00000 39016.00000
8.68 50.00000 5.13642 6936.00000 41048.00000
8.70 48.00000 5.12556 6742.00000 42272.00000
8.72 30.00000 5.14727 6516.00000 44428.00000
8.74 26.00000 5.12556 6558.00000 45424.00000
8.76 18.00000 5.12556 6656.00000 45706.00000
8.78 20.00000 5.11471 6614.00000 44732.00000
8.80 28.00000 5.13642 6624.00000 43000.00000
8.82 48.00000 5.12556 6550.00000 42010.00000
8.84 54.00000 5.12556 6424.00000 40554.00000
8.86 64.00000 5.12556 6336.00000 40128.00000
8.88 58.00000 5.14727 5766.00000 39608.00000
8.90 50.00000 5.14727 5688.00000 39266.00000
8.92 52.00000 5.13642 5194.00000 38868.00000
8.94 56.00000 5.13642 5034.00000 38628.00000
8.96 58.00000 5.12556 4876.00000 38678.00000
8.98 46.00000 5.13642 4838.00000 38814.00000
9.00 42.00000 5.13642 4850.00000 38808.00000
9.02 52.00000 5.13642 4798.00000 38940.00000
9.04 54.00000 5.13642 4812.00000 39044.00000
9.06 56.00000 5.13642 4800.00000 39012.00000
9.08 44.00000 5.14727 4726.00000 39118.00000
9.10 52.00000 5.14727 4666.00000 39116.00000
9.12 48.00000 5.14727 4604.00000 39278.00000
9.14 52.00000 5.14727 4620.00000 39254.00000
9.16 50.00000 5.13642 4648.00000 39310.00000
9.18 40.00000 5.12556 4672.00000 39032.00000
9.20 36.00000 5.11471 4650.00000 38678.00000
9.22 40.00000 5.12556 4542.00000 38420.00000
9.24 48.00000 5.14727 4510.00000 38494.00000
9.26 42.00000 5.13642 4524.00000 38338.00000
9.28 38.00000 5.11471 4580.00000 38374.00000
9.30 42.00000 5.09299 4486.00000 38440.00000
9.32 48.00000 5.09299 4480.00000 38602.00000
9.34 50.00000 5.11471 4514.00000 38448.00000
9.36 50.00000 5.12556 4464.00000 38086.00000
9.38 52.00000 5.12556 4500.00000 38206.00000
9.40 54.00000 5.10385 4550.00000 38212.00000
9.42 56.00000 5.09299 4746.00000 38520.00000
9.44 64.00000 5.11471 4736.00000 38350.00000
9.46 54.00000 5.11471 4648.00000 38680.00000
9.48 64.00000 5.11471 4676.00000 38904.00000
9.50 64.00000 5.11471 4780.00000 39192.00000
9.52 62.00000 5.11471 4840.00000 39230.00000
9.54 78.00000 5.11471 4862.00000 39316.00000
9.56 56.00000 5.12556 4762.00000 39130.00000
9.58 66.00000 5.13642 4790.00000 38990.00000
9.60 40.00000 5.14727 4874.00000 38884.00000
9.62 62.00000 5.13642 4924.00000 39290.00000
9.64 56.00000 5.13642 5010.00000 39246.00000
9.66 58.00000 5.13642 4914.00000 39724.00000
9.68 50.00000 5.13642 4858.00000 39706.00000
9.70 56.00000 5.13642 4788.00000 40228.00000
9.72 82.00000 5.13642 4830.00000 39834.00000
9.74 72.00000 5.12556 4750.00000 39698.00000
9.76 66.00000 5.13642 4722.00000 39006.00000
9.78 40.00000 5.14727 4716.00000 39000.00000
9.80 42.00000 5.13642 4822.00000 39342.00000
9.82 48.00000 5.13642 4890.00000 39544.00000
9.84 42.00000 5.13642 4904.00000 39488.00000
9.86 46.00000 5.13642 5036.00000 39162.00000
9.88 48.00000 5.13642 5020.00000 39064.00000
9.90 52.00000 5.13642 4952.00000 39064.00000
9.92 48.00000 5.15813 4968.00000 39270.00000
9.94 54.00000 5.14727 4910.00000 39384.00000
9.96 68.00000 5.14727 5020.00000 39436.00000
9.98 72.00000 5.14727 5036.00000 39328.00000
10.00 68.00000 5.14727 5154.00000 39246.00000
10.02 60.00000 5.14727 5120.00000 39228.00000
10.04 58.00000 5.14727 5126.00000 39064.00000
10.06 60.00000 5.14727 5088.00000 39222.00000
10.08 44.00000 5.13642 5112.00000 39162.00000
10.10 54.00000 5.13642 5154.00000 39618.00000
10.12 46.00000 5.12556 5238.00000 39890.00000
10.14 52.00000 5.12556 5230.00000 40136.00000
10.16 50.00000 5.12556 5218.00000 39964.00000
10.18 50.00000 5.13642 5230.00000 40020.00000
10.20 62.00000 5.13642 5090.00000 39756.00000
10.22 54.00000 5.14727 5162.00000 39870.00000
10.24 66.00000 5.14727 5212.00000 39780.00000
10.26 72.00000 5.14727 5352.00000 39942.00000
10.28 74.00000 5.14727 5378.00000 39902.00000
10.30 62.00000 5.14727 5402.00000 39720.00000
10.32 54.00000 5.14727 5350.00000 39758.00000
10.34 36.00000 5.12556 5342.00000 39738.00000
10.36 42.00000 5.13642 5330.00000 40094.00000
10.38 44.00000 5.13642 5328.00000 39926.00000
10.40 46.00000 5.13642 5126.00000 39680.00000
10.42 42.00000 5.13642 4994.00000 39594.00000
10.44 36.00000 5.13642 4900.00000 39654.00000
10.46 36.00000 5.13642 4846.00000 39468.00000
10.48 46.00000 5.13642 4684.00000 39200.00000
10.50 44.00000 5.13642 4532.00000 38932.00000
10.52 54.00000 5.15813 4284.00000 38864.00000
10.54 48.00000 5.15813 4282.00000 38942.00000
10.56 60.00000 5.13642 4180.00000 38676.00000
10.58 46.00000 5.09299 4112.00000 38368.00000
10.60 48.00000 5.09299 4268.00000 37952.00000
10.62 42.00000 5.10385 4282.00000 37792.00000
10.64 54.00000 5.14727 4344.00000 37760.00000
10.66 54.00000 5.13642 4226.00000 37656.00000
10.68 46.00000 5.13642 4170.00000 37456.00000
10.70 44.00000 5.13642 4178.00000 37522.00000
10.72 38.00000 5.14727 4126.00000 37748.00000
10.74 36.00000 5.13642 4092.00000 38120.00000
10.76 30.00000 5.11471 4028.00000 38164.00000
10.78 32.00000 5.10385 4026.00000 38334.00000
10.80 36.00000 5.10385 4154.00000 38616.00000
