~Version Information
VERS.             2.0: LAS Version 2.0
WRAP.             NO: One Line per depth step
~Well Information Block
STRT.M                0.22: Start Depth
STOP.M                100.84: Stop Depth
STEP.M                0.02: Start Depth
NULL.                    -999:NULL VALUE
COMP.                PT.BGG: COMPANY
WELL.                DH-09-05C1:
FLD.                 MUARA LAWAI: FIELD
UWI.                 uwi: UWI
LOC.                 location: LOCATION
PROV.                SOUTH SUMATERA: PROVINCE
CNTY.                indonesia: COUNTRY
SRVC.                RescaLog: SERVICE COMPANY
DATE.                06-04-2021 09:37:27: LOG DATE
~Curve Information Block
DEPT.M        :DEPTH
GR.CPS                  :Gamma Ray
CL.CPS                  :Caliper
LD.CPS                  :Long Density
SD.CPS                  :Short Density
#DATA
~A
# ...
14.30 38.00000 4.94101 3628.00000 37574.00000
14.32 52.00000 4.94101 3570.00000 37696.00000
14.34 62.00000 4.89759 3620.00000 38048.00000
14.36 66.00000 4.89759 3600.00000 38188.00000
14.38 50.00000 4.89759 3618.00000 37896.00000
14.40 52.00000 4.94101 3630.00000 37478.00000
14.42 48.00000 4.94101 3664.00000 37240.00000
14.44 54.00000 4.94101 3718.00000 37324.00000
14.46 42.00000 4.94101 3818.00000 37512.00000
14.48 40.00000 4.94101 3858.00000 37964.00000
14.50 30.00000 4.94101 3836.00000 38198.00000
14.52 28.00000 4.94101 3962.00000 38126.00000
14.54 30.00000 4.94101 4018.00000 38364.00000
14.56 32.00000 4.89759 4114.00000 38418.00000
14.58 46.00000 4.89759 4066.00000 38948.00000
14.60 50.00000 4.89759 4052.00000 39526.00000
14.62 44.00000 4.91930 4064.00000 39892.00000
14.64 34.00000 4.94101 4262.00000 39936.00000
14.66 32.00000 4.94101 4304.00000 39596.00000
14.68 40.00000 4.94101 4278.00000 39862.00000
14.70 40.00000 4.94101 4292.00000 39892.00000
14.72 44.00000 4.94101 4390.00000 39964.00000
14.74 54.00000 4.94101 4468.00000 40516.00000
14.76 66.00000 4.94101 4526.00000 41120.00000
14.78 60.00000 4.94101 4522.00000 41248.00000
14.80 42.00000 4.94101 4526.00000 41192.00000
14.82 24.00000 4.93016 4560.00000 41132.00000
14.84 26.00000 4.93016 4546.00000 41184.00000
14.86 40.00000 4.93016 4502.00000 41160.00000
14.88 46.00000 4.94101 4536.00000 41034.00000
14.90 48.00000 4.94101 4572.00000 40902.00000
14.92 56.00000 4.94101 4600.00000 40668.00000
14.94 64.00000 4.94101 4644.00000 40830.00000
14.96 60.00000 4.94101 4704.00000 40868.00000
14.98 54.00000 4.89759 4774.00000 41086.00000
15.00 56.00000 4.87588 4660.00000 40942.00000
15.02 64.00000 4.86502 4570.00000 40744.00000
15.04 64.00000 4.90844 4400.00000 40560.00000
15.06 46.00000 4.93016 4460.00000 40412.00000
15.08 34.00000 4.94101 4414.00000 39870.00000
15.10 34.00000 4.93016 4390.00000 39398.00000
15.12 34.00000 4.93016 4338.00000 39308.00000
15.14 40.00000 4.93016 4310.00000 39194.00000
15.16 60.00000 4.94101 4290.00000 38870.00000
15.18 58.00000 4.94101 4404.00000 38570.00000
15.20 58.00000 4.93016 4428.00000 38414.00000
15.22 38.00000 4.93016 4466.00000 38720.00000
15.24 36.00000 4.93016 4616.00000 38672.00000
15.26 34.00000 4.94101 4662.00000 38762.00000
15.28 30.00000 4.93016 4652.00000 39284.00000
15.30 36.00000 4.93016 4608.00000 40114.00000
15.32 38.00000 4.93016 4444.00000 40702.00000
15.34 36.00000 4.93016 4448.00000 41262.00000
15.36 38.00000 4.94101 4536.00000 41632.00000
15.38 42.00000 4.93016 4576.00000 42186.00000
15.40 62.00000 4.93016 4560.00000 42184.00000
15.42 68.00000 4.93016 4368.00000 41676.00000
15.44 60.00000 4.93016 4320.00000 40898.00000
15.46 42.00000 4.94101 4206.00000 40552.00000
15.48 44.00000 4.94101 4300.00000 39926.00000
15.50 46.00000 4.94101 4224.00000 39382.00000
15.52 44.00000 4.93016 4146.00000 38900.00000
15.54 36.00000 4.93016 4072.00000 38564.00000
15.56 20.00000 4.93016 4038.00000 38476.00000
15.58 24.00000 4.93016 4036.00000 38018.00000
15.60 26.00000 4.94101 3976.00000 38290.00000
15.62 40.00000 4.94101 3930.00000 38286.00000
15.64 40.00000 4.91930 3878.00000 38476.00000
15.66 48.00000 4.91930 3828.00000 38416.00000
15.68 36.00000 4.91930 3698.00000 38024.00000
15.70 42.00000 4.94101 3762.00000 37968.00000
15.72 32.00000 4.94101 3748.00000 38006.00000
15.74 20.00000 4.94101 3890.00000 38236.00000
15.76 16.00000 4.94101 3922.00000 38886.00000
15.78 20.00000 4.94101 4100.00000 39004.00000
15.80 20.00000 4.94101 4026.00000 39338.00000
15.82 24.00000 4.90844 4052.00000 39684.00000
15.84 28.00000 4.88673 4002.00000 40252.00000
15.86 50.00000 4.87588 4144.00000 40982.00000
15.88 46.00000 4.89759 4158.00000 41684.00000
15.90 44.00000 4.93016 4134.00000 41628.00000
15.92 30.00000 4.94101 4036.00000 41666.00000
15.94 30.00000 4.94101 4048.00000 41592.00000
15.96 32.00000 4.94101 3956.00000 41194.00000
15.98 36.00000 4.93016 3854.00000 41016.00000
16.00 32.00000 4.93016 3510.00000 40512.00000
16.02 28.00000 4.93016 3438.00000 40390.00000
16.04 34.00000 4.93016 3234.00000 40436.00000
16.06 36.00000 4.91930 3316.00000 40210.00000
16.08 38.00000 4.90844 3252.00000 39790.00000
16.10 34.00000 4.90844 3240.00000 38626.00000
16.12 32.00000 4.91930 3208.00000 38048.00000
16.14 24.00000 4.91930 3156.00000 37736.00000
16.16 24.00000 4.90844 3134.00000 37722.00000
16.18 24.00000 4.91930 3164.00000 37556.00000
16.20 20.00000 4.91930 3226.00000 37256.00000
16.22 40.00000 4.93016 3238.00000 36954.00000
16.24 38.00000 4.90844 3152.00000 37096.00000
16.26 40.00000 4.90844 3134.00000 37064.00000
16.28 26.00000 4.90844 3100.00000 37212.00000
16.30 26.00000 4.91930 3130.00000 36766.00000
16.32 22.00000 4.91930 3094.00000 36812.00000
16.34 28.00000 4.91930 3138.00000 36820.00000
16.36 30.00000 4.90844 3226.00000 36998.00000
16.38 36.00000 4.89759 3220.00000 37086.00000
16.40 32.00000 4.89759 3258.00000 36958.00000
16.42 24.00000 4.89759 3150.00000 36928.00000
16.44 26.00000 4.89759 3122.00000 37132.00000
16.46 26.00000 4.90844 3052.00000 37234.00000
16.48 38.00000 4.89759 2970.00000 37164.00000
16.50 34.00000 4.89759 2998.00000 36678.00000
16.52 38.00000 4.89759 3062.00000 36512.00000
16.54 30.00000 4.89759 3174.00000 36116.00000
16.56 24.00000 4.89759 3154.00000 36072.00000
16.58 30.00000 4.88673 3154.00000 36182.00000
16.60 28.00000 4.89759 3148.00000 36290.00000
16.62 32.00000 4.93016 3198.00000 36286.00000
16.64 28.00000 4.94101 3114.00000 36418.00000
16.66 20.00000 4.93016 3120.00000 36584.00000
16.68 24.00000 4.90844 3132.00000 36964.00000
16.70 26.00000 4.89759 3102.00000 37222.00000
16.72 20.00000 4.89759 3162.00000 37554.00000
16.74 18.00000 4.90844 3126.00000 37626.00000
16.76 18.00000 4.91930 3152.00000 37562.00000
16.78 18.00000 4.90844 3120.00000 37168.00000
16.80 32.00000 4.89759 3118.00000 37164.00000
16.82 42.00000 4.89759 3226.00000 36730.00000
16.84 58.00000 4.89759 3348.00000 36862.00000
16.86 58.00000 4.88673 3380.00000 36668.00000
16.88 52.00000 4.88673 3432.00000 37162.00000
16.90 34.00000 4.88673 3424.00000 37436.00000
16.92 18.00000 4.90844 3542.00000 37740.00000
16.94 24.00000 4.89759 3560.00000 38038.00000
16.96 24.00000 4.89759 3662.00000 38214.00000
16.98 28.00000 4.89759 3724.00000 38634.00000
17.00 34.00000 4.90844 3822.00000 38810.00000
17.02 38.00000 4.89759 3870.00000 38604.00000
17.04 44.00000 4.88673 3896.00000 38810.00000
17.06 48.00000 4.88673 3932.00000 38604.00000
17.08 44.00000 4.89759 4042.00000 38692.00000
17.10 30.00000 4.89759 3976.00000 38504.00000
17.12 32.00000 4.89759 3878.00000 38406.00000
17.14 30.00000 4.89759 3814.00000 38288.00000
17.16 44.00000 4.89759 3822.00000 38070.00000
17.18 42.00000 4.89759 3830.00000 38002.00000
17.20 48.00000 4.89759 3926.00000 37890.00000
17.22 58.00000 4.89759 3924.00000 38444.00000
17.24 56.00000 4.87588 3978.00000 38428.00000
17.26 52.00000 4.87588 4034.00000 38842.00000
17.28 58.00000 4.88673 4038.00000 38542.00000
17.30 48.00000 4.89759 4048.00000 38722.00000
17.32 60.00000 4.90844 4070.00000 38812.00000
17.34 72.00000 4.88673 4078.00000 39126.00000
17.36 74.00000 4.88673 4068.00000 39496.00000
17.38 68.00000 4.87588 4032.00000 39652.00000
17.40 42.00000 4.87588 4134.00000 39810.00000
17.42 46.00000 4.87588 4130.00000 39686.00000
17.44 32.00000 4.87588 4132.00000 39516.00000
17.46 36.00000 4.87588 4206.00000 39340.00000
17.48 40.00000 4.86502 4212.00000 39286.00000
17.50 42.00000 4.86502 4146.00000 39784.00000
17.52 46.00000 4.86502 4128.00000 40048.00000
17.54 44.00000 4.90844 4096.00000 40202.00000
17.56 50.00000 4.91930 4182.00000 39832.00000
17.58 38.00000 4.91930 4210.00000 39866.00000
17.60 38.00000 4.90844 4218.00000 39350.00000
17.62 40.00000 4.87588 4164.00000 39420.00000
17.64 44.00000 4.88673 4250.00000 39282.00000
17.66 42.00000 4.89759 4142.00000 39510.00000
17.68 40.00000 4.91930 4264.00000 39580.00000
17.70 44.00000 4.91930 4244.00000 39762.00000
17.72 36.00000 4.90844 4332.00000 39824.00000
17.74 44.00000 4.90844 4400.00000 40036.00000
17.76 40.00000 4.89759 4556.00000 40140.00000
