~Version Information
VERS.             2.0: LAS Version 2.0
WRAP.             NO: One Line per depth step
~Well Information Block
STRT.M                0.22: Start Depth
STOP.M                100.84: Stop Depth
STEP.M                0.02: Start Depth
NULL.                    -999:NULL VALUE
COMP.                PT.BGG: COMPANY
WELL.                DH-09-05C1:
FLD.                 MUARA LAWAI: FIELD
UWI.                 uwi: UWI
LOC.                 location: LOCATION
PROV.                SOUTH SUMATERA: PROVINCE
CNTY.                indonesia: COUNTRY
SRVC.                RescaLog: SERVICE COMPANY
DATE.                06-04-2021 09:37:27: LOG DATE
~Curve Information Block
DEPT.M        :DEPTH
GR.CPS                  :Gamma Ray
CL.CPS                  :Caliper
LD.CPS                  :Long Density
SD.CPS                  :Short Density
#DATA
~A
# ...
38.66 58.00000 4.41993 4510.00000 39466.00000
38.68 48.00000 4.41993 4646.00000 39842.00000
38.70 50.00000 4.41993 4618.00000 39876.00000
38.72 54.00000 4.39822 4700.00000 40070.00000
38.74 46.00000 4.39822 4840.00000 40304.00000
38.76 52.00000 4.40908 5140.00000 40334.00000
38.78 54.00000 4.40908 5194.00000 40610.00000
38.80 58.00000 4.40908 5280.00000 40644.00000
38.82 42.00000 4.40908 5280.00000 40770.00000
38.84 36.00000 4.41993 5246.00000 40694.00000
38.86 28.00000 4.41993 5162.00000 40886.00000
38.88 32.00000 4.41993 5228.00000 41164.00000
38.90 34.00000 4.41993 5196.00000 41606.00000
38.92 36.00000 4.40908 5270.00000 41434.00000
38.94 30.00000 4.39822 5156.00000 41178.00000
38.96 32.00000 4.38736 5168.00000 40904.00000
38.98 34.00000 4.39822 5162.00000 40862.00000
39.00 30.00000 4.39822 5096.00000 40566.00000
39.02 24.00000 4.39822 4984.00000 40052.00000
39.04 20.00000 4.39822 4928.00000 39690.00000
39.06 42.00000 4.39822 4780.00000 39738.00000
39.08 56.00000 4.39822 4826.00000 39876.00000
39.10 62.00000 4.39822 4776.00000 40014.00000
39.12 62.00000 4.39822 5034.00000 39758.00000
39.14 60.00000 4.39822 4962.00000 39864.00000
39.16 50.00000 4.39822 5058.00000 39758.00000
39.18 32.00000 4.39822 4778.00000 40258.00000
39.20 26.00000 4.40908 4734.00000 40390.00000
39.22 34.00000 4.41993 4602.00000 40366.00000
39.24 40.00000 4.41993 4726.00000 39934.00000
39.26 38.00000 4.40908 4726.00000 39902.00000
39.28 40.00000 4.39822 4838.00000 39890.00000
39.30 40.00000 4.40908 4824.00000 40034.00000
39.32 48.00000 4.41993 4880.00000 39894.00000
39.34 48.00000 4.44164 4834.00000 39618.00000
39.36 56.00000 4.45250 4718.00000 39436.00000
39.38 54.00000 4.44164 4772.00000 39330.00000
39.40 42.00000 4.41993 4884.00000 39558.00000
39.42 32.00000 4.39822 4992.00000 39706.00000
39.44 26.00000 4.39822 4888.00000 39794.00000
39.46 30.00000 4.39822 4870.00000 39992.00000
39.48 36.00000 4.39822 5122.00000 40302.00000
39.50 50.00000 4.40908 5540.00000 40480.00000
39.52 64.00000 4.43079 5776.00000 40814.00000
39.54 64.00000 4.44164 5572.00000 40524.00000
39.56 58.00000 4.43079 5428.00000 40686.00000
39.58 48.00000 4.41993 5422.00000 41186.00000
39.60 30.00000 4.40908 5460.00000 42514.00000
39.62 26.00000 4.41993 5326.00000 42886.00000
39.64 30.00000 4.43079 5230.00000 42372.00000
39.66 50.00000 4.44164 5126.00000 42104.00000
39.68 58.00000 4.44164 5156.00000 42308.00000
39.70 50.00000 4.43079 5222.00000 42332.00000
39.72 38.00000 4.41993 5268.00000 41594.00000
39.74 36.00000 4.41993 5188.00000 41008.00000
39.76 44.00000 4.43079 4944.00000 40810.00000
39.78 46.00000 4.43079 4832.00000 40838.00000
39.80 42.00000 4.40908 4828.00000 40588.00000
39.82 42.00000 4.39822 4784.00000 40338.00000
39.84 42.00000 4.40908 4558.00000 40386.00000
39.86 46.00000 4.40908 4528.00000 40468.00000
39.88 42.00000 4.40908 4562.00000 40214.00000
39.90 32.00000 4.40908 4544.00000 39976.00000
39.92 34.00000 4.40908 4536.00000 39900.00000
39.94 40.00000 4.40908 4450.00000 39656.00000
39.96 52.00000 4.40908 4522.00000 39740.00000
39.98 46.00000 4.41993 4584.00000 39692.00000
40.00 36.00000 4.43079 4578.00000 40354.00000
40.02 36.00000 4.44164 4618.00000 40372.00000
40.04 42.00000 4.45250 4564.00000 40686.00000
40.06 46.00000 4.43079 4700.00000 41008.00000
40.08 46.00000 4.43079 4774.00000 41234.00000
40.10 48.00000 4.41993 4890.00000 40832.00000
40.12 46.00000 4.43079 4846.00000 40688.00000
40.14 42.00000 4.43079 4736.00000 40588.00000
40.16 44.00000 4.41993 4702.00000 40984.00000
40.18 36.00000 4.43079 4700.00000 40968.00000
40.20 40.00000 4.41993 4782.00000 40906.00000
40.22 46.00000 4.43079 4706.00000 40772.00000
40.24 68.00000 4.41993 4736.00000 40814.00000
40.26 72.00000 4.41993 4776.00000 41158.00000
40.28 62.00000 4.40908 4936.00000 41168.00000
40.30 42.00000 4.40908 4964.00000 41264.00000
40.32 34.00000 4.40908 4946.00000 41272.00000
40.34 54.00000 4.40908 4900.00000 41382.00000
40.36 58.00000 4.41993 4920.00000 41352.00000
40.38 74.00000 4.41993 5044.00000 41448.00000
40.40 52.00000 4.43079 5048.00000 41808.00000
40.42 46.00000 4.41993 4986.00000 42192.00000
40.44 42.00000 4.41993 4900.00000 42462.00000
40.46 50.00000 4.40908 4850.00000 42338.00000
40.48 48.00000 4.39822 4918.00000 42096.00000
40.50 46.00000 4.40908 4908.00000 41718.00000
40.52 48.00000 4.41993 4932.00000 41776.00000
40.54 58.00000 4.41993 5006.00000 41222.00000
40.56 54.00000 4.41993 5154.00000 40966.00000
40.58 56.00000 4.41993 5400.00000 40808.00000
40.60 50.00000 4.41993 5508.00000 41026.00000
40.62 46.00000 4.40908 5438.00000 41022.00000
40.64 48.00000 4.41993 5252.00000 40978.00000
40.66 44.00000 4.41993 5130.00000 41192.00000
40.68 56.00000 4.41993 5088.00000 41562.00000
40.70 60.00000 4.40908 5162.00000 41874.00000
40.72 54.00000 4.40908 5258.00000 41520.00000
40.74 48.00000 4.41993 5312.00000 41366.00000
40.76 38.00000 4.40908 5330.00000 41326.00000
40.78 54.00000 4.43079 5234.00000 41520.00000
40.80 52.00000 4.44164 5204.00000 41532.00000
40.82 48.00000 4.47421 5106.00000 41026.00000
40.84 38.00000 4.46335 5126.00000 40842.00000
40.86 44.00000 4.46335 5008.00000 40128.00000
40.88 48.00000 4.46335 4962.00000 40066.00000
40.90 56.00000 4.45250 4840.00000 39840.00000
40.92 48.00000 4.46335 4770.00000 40214.00000
40.94 50.00000 4.45250 4770.00000 40114.00000
40.96 58.00000 4.47421 4646.00000 40364.00000
40.98 54.00000 4.46335 4642.00000 40120.00000
41.00 52.00000 4.45250 4646.00000 39732.00000
41.02 36.00000 4.45250 4668.00000 39348.00000
41.04 46.00000 4.45250 4696.00000 39348.00000
41.06 60.00000 4.47421 4718.00000 39744.00000
41.08 64.00000 4.46335 4640.00000 39596.00000
41.10 66.00000 4.47421 4612.00000 39454.00000
41.12 58.00000 4.46335 4582.00000 38978.00000
41.14 74.00000 4.47421 4648.00000 39098.00000
41.16 66.00000 4.47421 4722.00000 39120.00000
41.18 58.00000 4.47421 4820.00000 39686.00000
41.20 42.00000 4.45250 4872.00000 39844.00000
41.22 34.00000 4.45250 4890.00000 39448.00000
41.24 34.00000 4.45250 5052.00000 39406.00000
41.26 26.00000 4.47421 5034.00000 39406.00000
41.28 34.00000 4.47421 5126.00000 39938.00000
41.30 46.00000 4.46335 5054.00000 39994.00000
41.32 52.00000 4.45250 5134.00000 40216.00000
41.34 48.00000 4.44164 5210.00000 40040.00000
41.36 44.00000 4.45250 5330.00000 40164.00000
41.38 32.00000 4.45250 5464.00000 40058.00000
41.40 28.00000 4.45250 5396.00000 40236.00000
41.42 36.00000 4.45250 5298.00000 40348.00000
41.44 40.00000 4.45250 5338.00000 40542.00000
41.46 54.00000 4.45250 5324.00000 40632.00000
41.48 56.00000 4.45250 5398.00000 40664.00000
41.50 52.00000 4.45250 5248.00000 40390.00000
41.52 48.00000 4.45250 5268.00000 40326.00000
41.54 34.00000 4.45250 5112.00000 40168.00000
41.56 40.00000 4.45250 5152.00000 40224.00000
41.58 48.00000 4.44164 5078.00000 40272.00000
41.60 56.00000 4.45250 5140.00000 40440.00000
41.62 50.00000 4.44164 5024.00000 40426.00000
41.64 46.00000 4.45250 5030.00000 40156.00000
41.66 36.00000 4.45250 4950.00000 39752.00000
41.68 40.00000 4.45250 4916.00000 39748.00000
41.70 42.00000 4.45250 4880.00000 39732.00000
41.72 38.00000 4.44164 4894.00000 40064.00000
41.74 40.00000 4.44164 4926.00000 39676.00000
41.76 36.00000 4.43079 4974.00000 39738.00000
41.78 48.00000 4.44164 4930.00000 39398.00000
41.80 50.00000 4.43079 4740.00000 39696.00000
41.82 60.00000 4.44164 4700.00000 39792.00000
41.84 56.00000 4.44164 4744.00000 40252.00000
41.86 56.00000 4.45250 4892.00000 40478.00000
41.88 44.00000 4.44164 4948.00000 40532.00000
41.90 40.00000 4.44164 4950.00000 39752.00000
41.92 44.00000 4.45250 5050.00000 39698.00000
41.94 42.00000 4.44164 5024.00000 39892.00000
41.96 46.00000 4.44164 5044.00000 40352.00000
41.98 54.00000 4.44164 4936.00000 40350.00000
42.00 54.00000 4.45250 5020.00000 40276.00000
42.02 52.00000 4.44164 5016.00000 40542.00000
42.04 36.00000 4.44164 4910.00000 40386.00000
42.06 40.00000 4.44164 4888.00000 40386.00000
42.08 48.00000 4.45250 4920.00000 40210.00000
42.10 46.00000 4.45250 5036.00000 40172.00000
42.12 50.00000 4.43079 4938.00000 40056.00000
