~Version Information
VERS.             2.0: LAS Version 2.0
WRAP.             NO: One Line per depth step
~Well Information Block
STRT.M                0.22: Start Depth
STOP.M                100.84: Stop Depth
STEP.M                0.02: Start Depth
NULL.                    -999:NULL VALUE
COMP.                PT.BGG: COMPANY
WELL.                DH-09-05C1:
FLD.                 MUARA LAWAI: FIELD
UWI.                 uwi: UWI
LOC.                 location: LOCATION
PROV.                SOUTH SUMATERA: PROVINCE
CNTY.                indonesia: COUNTRY
SRVC.                RescaLog: SERVICE COMPANY
DATE.                06-04-2021 09:37:27: LOG DATE
~Curve Information Block
DEPT.M        :DEPTH
GR.CPS                  :Gamma Ray
CL.CPS                  :Caliper
LD.CPS                  :Long Density
SD.CPS                  :Short Density
#DATA
~A
# ...
59.56 30.00000 4.43079 3324.00000 37418.00000
59.58 30.00000 4.41993 3418.00000 37560.00000
59.60 38.00000 4.41993 3430.00000 37322.00000
59.62 38.00000 4.41993 3482.00000 37124.00000
59.64 36.00000 4.41993 3402.00000 37404.00000
59.66 40.00000 4.41993 3434.00000 37292.00000
59.68 36.00000 4.41993 3420.00000 37260.00000
59.70 50.00000 4.41993 3392.00000 37356.00000
59.72 54.00000 4.40908 3352.00000 37550.00000
59.74 56.00000 4.40908 3372.00000 37522.00000
59.76 30.00000 4.41993 3412.00000 37476.00000
59.78 26.00000 4.41993 3444.00000 37592.00000
59.80 36.00000 4.41993 3478.00000 37750.00000
59.82 50.00000 4.41993 3530.00000 37464.00000
59.84 52.00000 4.40908 3588.00000 37666.00000
59.86 42.00000 4.40908 3536.00000 37574.00000
59.88 38.00000 4.39822 3542.00000 37594.00000
59.90 30.00000 4.39822 3540.00000 37470.00000
59.92 22.00000 4.39822 3454.00000 37570.00000
59.94 28.00000 4.40908 3520.00000 37562.00000
59.96 28.00000 4.41993 3512.00000 37730.00000
59.98 40.00000 4.43079 3600.00000 38054.00000
60.00 52.00000 4.41993 3556.00000 38036.00000
60.02 76.00000 4.41993 3498.00000 37784.00000
60.04 72.00000 4.43079 3454.00000 38126.00000
60.06 64.00000 4.43079 3470.00000 38132.00000
60.08 70.00000 4.43079 3474.00000 38290.00000
60.10 48.00000 4.43079 3586.00000 37994.00000
60.12 40.00000 4.41993 3636.00000 37888.00000
60.14 24.00000 4.43079 3662.00000 37930.00000
60.16 24.00000 4.43079 3654.00000 38136.00000
60.18 20.00000 4.44164 3690.00000 38014.00000
60.20 28.00000 4.44164 3750.00000 38118.00000
60.22 30.00000 4.43079 3706.00000 38318.00000
60.24 40.00000 4.41993 3702.00000 38276.00000
60.26 38.00000 4.41993 3602.00000 38680.00000
60.28 54.00000 4.41993 3588.00000 38854.00000
60.30 60.00000 4.41993 3572.00000 39124.00000
60.32 56.00000 4.43079 3564.00000 39076.00000
60.34 60.00000 4.44164 3578.00000 39118.00000
60.36 46.00000 4.43079 3572.00000 38908.00000
60.38 42.00000 4.43079 3670.00000 39068.00000
60.40 48.00000 4.43079 3728.00000 39000.00000
60.42 52.00000 4.41993 3794.00000 39274.00000
60.44 68.00000 4.41993 3706.00000 39236.00000
60.46 66.00000 4.41993 3704.00000 39566.00000
60.48 66.00000 4.44164 3702.00000 39600.00000
60.50 52.00000 4.43079 3796.00000 39624.00000
60.52 48.00000 4.44164 3812.00000 39464.00000
60.54 42.00000 4.43079 3732.00000 39696.00000
60.56 44.00000 4.44164 3732.00000 39380.00000
60.58 48.00000 4.43079 3774.00000 39016.00000
60.60 62.00000 4.43079 3802.00000 38456.00000
60.62 68.00000 4.43079 3690.00000 38570.00000
60.64 74.00000 4.43079 3588.00000 39016.00000
60.66 60.00000 4.43079 3606.00000 38912.00000
60.68 48.00000 4.43079 3606.00000 38918.00000
60.70 50.00000 4.43079 3602.00000 38692.00000
60.72 52.00000 4.44164 3606.00000 38934.00000
60.74 54.00000 4.43079 3590.00000 38922.00000
60.76 28.00000 4.43079 3620.00000 39106.00000
60.78 24.00000 4.43079 3630.00000 39000.00000
60.80 36.00000 4.43079 3542.00000 39090.00000
60.82 38.00000 4.43079 3618.00000 38822.00000
60.84 48.00000 4.41993 3542.00000 39074.00000
60.86 52.00000 4.43079 3540.00000 38826.00000
60.88 44.00000 4.43079 3452.00000 38796.00000
60.90 40.00000 4.44164 3380.00000 38672.00000
60.92 44.00000 4.44164 3392.00000 38732.00000
60.94 48.00000 4.44164 3254.00000 38940.00000
60.96 48.00000 4.44164 3200.00000 39206.00000
60.98 42.00000 4.44164 3260.00000 38998.00000
61.00 44.00000 4.43079 3308.00000 38946.00000
61.02 42.00000 4.43079 3352.00000 38784.00000
61.04 34.00000 4.41993 3314.00000 38758.00000
61.06 20.00000 4.41993 3312.00000 38292.00000
61.08 18.00000 4.43079 3240.00000 38272.00000
61.10 20.00000 4.43079 3184.00000 38022.00000
61.12 20.00000 4.44164 3074.00000 38396.00000
61.14 18.00000 4.44164 3016.00000 38758.00000
61.16 20.00000 4.46335 3112.00000 39410.00000
61.18 24.00000 4.46335 3112.00000 38922.00000
61.20 22.00000 4.47421 3118.00000 38588.00000
61.22 16.00000 4.48507 3020.00000 38146.00000
61.24 14.00000 4.50678 3044.00000 38308.00000
61.26 14.00000 4.53935 3038.00000 37950.00000
61.28 18.00000 4.57191 2976.00000 37582.00000
61.30 18.00000 4.64790 3006.00000 36672.00000
61.32 10.00000 4.69133 2928.00000 36030.00000
61.34 10.00000 4.68047 2956.00000 35906.00000
61.36 18.00000 4.64790 2870.00000 35962.00000
61.38 30.00000 4.65876 2934.00000 35956.00000
61.40 44.00000 4.68047 2884.00000 35928.00000
61.42 44.00000 4.71304 2980.00000 35976.00000
61.44 26.00000 4.72389 2994.00000 36134.00000
61.46 26.00000 4.69133 2988.00000 36188.00000
61.48 26.00000 4.68047 3246.00000 36790.00000
61.50 22.00000 4.65876 3274.00000 37212.00000
61.52 24.00000 4.68047 3252.00000 37244.00000
61.54 40.00000 4.68047 3166.00000 37254.00000
61.56 38.00000 4.69133 3262.00000 37072.00000
61.58 44.00000 4.69133 3366.00000 37380.00000
61.60 52.00000 4.71304 3530.00000 37420.00000
61.62 62.00000 4.72389 3518.00000 37562.00000
61.64 58.00000 4.71304 3504.00000 37338.00000
61.66 58.00000 4.70218 3456.00000 37640.00000
61.68 54.00000 4.68047 3522.00000 37626.00000
61.70 58.00000 4.68047 3606.00000 37662.00000
61.72 60.00000 4.69133 3640.00000 37876.00000
61.74 52.00000 4.69133 3596.00000 38052.00000
61.76 60.00000 4.70218 3614.00000 38298.00000
61.78 58.00000 4.70218 3626.00000 38410.00000
61.80 52.00000 4.70218 3580.00000 38310.00000
61.82 48.00000 4.70218 3610.00000 38068.00000
61.84 40.00000 4.70218 3560.00000 37956.00000
61.86 32.00000 4.70218 3598.00000 37956.00000
61.88 32.00000 4.68047 3588.00000 37960.00000
61.90 60.00000 4.65876 3576.00000 37344.00000
61.92 64.00000 4.65876 3538.00000 37226.00000
61.94 46.00000 4.69133 3474.00000 37296.00000
61.96 30.00000 4.70218 3466.00000 37674.00000
61.98 24.00000 4.71304 3400.00000 37984.00000
62.00 28.00000 4.70218 3420.00000 38380.00000
62.02 38.00000 4.69133 3518.00000 38514.00000
62.04 36.00000 4.70218 3596.00000 39008.00000
62.06 28.00000 4.69133 3578.00000 39208.00000
62.08 28.00000 4.71304 3572.00000 39546.00000
62.10 20.00000 4.71304 3536.00000 39832.00000
62.12 20.00000 4.71304 3594.00000 39788.00000
62.14 22.00000 4.71304 3482.00000 39696.00000
62.16 24.00000 4.71304 3542.00000 39844.00000
62.18 28.00000 4.69133 3794.00000 39634.00000
62.20 42.00000 4.70218 3834.00000 39636.00000
62.22 44.00000 4.68047 3858.00000 39384.00000
62.24 68.00000 4.69133 3666.00000 39620.00000
62.26 50.00000 4.68047 3648.00000 39540.00000
62.28 28.00000 4.68047 3656.00000 39414.00000
62.30 28.00000 4.68047 3680.00000 39360.00000
62.32 40.00000 4.68047 3756.00000 39380.00000
62.34 42.00000 4.69133 3760.00000 39298.00000
62.36 56.00000 4.71304 3770.00000 39048.00000
62.38 46.00000 4.69133 3898.00000 39034.00000
62.40 56.00000 4.69133 3852.00000 39288.00000
62.42 38.00000 4.66962 3628.00000 39478.00000
62.44 32.00000 4.65876 3476.00000 39650.00000
62.46 38.00000 4.65876 3472.00000 39550.00000
62.48 58.00000 4.65876 3612.00000 39604.00000
62.50 64.00000 4.64790 3604.00000 39454.00000
62.52 48.00000 4.65876 3528.00000 39088.00000
62.54 52.00000 4.64790 3394.00000 38462.00000
62.56 64.00000 4.64790 3306.00000 37950.00000
62.58 60.00000 4.62619 3338.00000 37628.00000
62.60 54.00000 4.62619 3434.00000 37628.00000
62.62 50.00000 4.62619 3478.00000 37544.00000
62.64 46.00000 4.63705 3282.00000 37162.00000
62.66 54.00000 4.62619 3152.00000 37034.00000
62.68 40.00000 4.62619 3064.00000 37082.00000
62.70 30.00000 4.61534 3000.00000 36864.00000
62.72 32.00000 4.61534 3052.00000 36638.00000
62.74 30.00000 4.61534 2938.00000 35958.00000
62.76 26.00000 4.60448 2926.00000 36058.00000
62.78 16.00000 4.58277 2908.00000 36180.00000
62.80 14.00000 4.58277 2948.00000 36292.00000
62.82 22.00000 4.58277 2986.00000 36118.00000
62.84 24.00000 4.57191 2968.00000 36016.00000
62.86 18.00000 4.56106 2922.00000 36316.00000
62.88 20.00000 4.55020 3034.00000 36544.00000
62.90 20.00000 4.56106 3070.00000 36596.00000
62.92 24.00000 4.56106 3100.00000 36472.00000
62.94 22.00000 4.56106 3052.00000 36432.00000
62.96 22.00000 4.55020 3118.00000 36636.00000
62.98 22.00000 4.53935 3174.00000 36690.00000
63.00 24.00000 4.53935 3154.00000 36414.00000
63.02 28.00000 4.53935 3042.00000 36322.00000
