~Version Information
VERS.             2.0: LAS Version 2.0
WRAP.             NO: One Line per depth step
~Well Information Block
STRT.M                0.22: Start Depth
STOP.M                100.84: Stop Depth
STEP.M                0.02: Start Depth
NULL.                    -999:NULL VALUE
COMP.                PT.BGG: COMPANY
WELL.                DH-09-05C1:
FLD.                 MUARA LAWAI: FIELD
UWI.                 uwi: UWI
LOC.                 location: LOCATION
PROV.                SOUTH SUMATERA: PROVINCE
CNTY.                indonesia: COUNTRY
SRVC.                RescaLog: SERVICE COMPANY
DATE.                06-04-2021 09:37:27: LOG DATE
~Curve Information Block
DEPT.M        :DEPTH
GR.CPS                  :Gamma Ray
CL.CPS                  :Caliper
LD.CPS                  :Long Density
SD.CPS                  :Short Density
#DATA
~A
# ...
91.22 4.00000 3.14980 8742.00000 44040.00000
91.24 2.00000 3.14980 8902.00000 44076.00000
91.26 2.00000 3.14980 8934.00000 43602.00000
91.28 8.00000 3.14980 8906.00000 43474.00000
91.30 8.00000 3.11723 8710.00000 43830.00000
91.32 4.00000 3.09552 8874.00000 44062.00000
91.34 2.00000 3.08466 9024.00000 44188.00000
91.36 0.00000 3.05210 9036.00000 44374.00000
91.38 0.00000 3.04124 9066.00000 44094.00000
91.40 2.00000 3.05210 8962.00000 44130.00000
91.42 4.00000 3.05210 8990.00000 44076.00000
91.44 4.00000 3.03038 8976.00000 43772.00000
91.46 2.00000 2.98696 9196.00000 43890.00000
91.48 0.00000 2.96525 9108.00000 43836.00000
91.50 0.00000 2.97610 8966.00000 43782.00000
91.52 0.00000 2.95439 8940.00000 43968.00000
91.54 0.00000 2.94354 8910.00000 44234.00000
91.56 0.00000 2.94354 9016.00000 43988.00000
91.58 0.00000 2.95439 9104.00000 44014.00000
91.60 0.00000 2.97610 8986.00000 43714.00000
91.62 0.00000 2.97610 8768.00000 43588.00000
91.64 0.00000 2.97610 8642.00000 44240.00000
91.66 0.00000 2.96525 8606.00000 44280.00000
91.68 2.00000 2.96525 8502.00000 44164.00000
91.70 2.00000 2.98696 8616.00000 43844.00000
91.72 2.00000 2.97610 8840.00000 43094.00000
91.74 4.00000 2.96525 8746.00000 43002.00000
91.76 4.00000 2.95439 8598.00000 42986.00000
91.78 4.00000 2.96525 8638.00000 42578.00000
91.80 6.00000 2.98696 8538.00000 42152.00000
91.82 2.00000 2.98696 8490.00000 42254.00000
91.84 6.00000 2.98696 8634.00000 42328.00000
91.86 6.00000 2.98696 8522.00000 42284.00000
91.88 6.00000 2.98696 8370.00000 41928.00000
91.90 2.00000 2.98696 8256.00000 41830.00000
91.92 2.00000 2.97610 8386.00000 41876.00000
91.94 6.00000 2.97610 8408.00000 41410.00000
91.96 4.00000 2.98696 8434.00000 41620.00000
91.98 0.00000 2.98696 8300.00000 41556.00000
92.00 4.00000 2.98696 8242.00000 41758.00000
92.02 4.00000 2.98696 8262.00000 41762.00000
92.04 4.00000 2.98696 8308.00000 42108.00000
92.06 4.00000 2.99782 8174.00000 42184.00000
92.08 4.00000 2.99782 8210.00000 42552.00000
92.10 2.00000 2.99782 7962.00000 42810.00000
92.12 0.00000 3.00867 7998.00000 42378.00000
92.14 2.00000 3.00867 7876.00000 42492.00000
92.16 2.00000 2.99782 8116.00000 42488.00000
92.18 6.00000 3.00867 8130.00000 42532.00000
92.20 8.00000 2.99782 8036.00000 42282.00000
92.22 4.00000 2.98696 8088.00000 42132.00000
92.24 2.00000 2.99782 8200.00000 42066.00000
92.26 4.00000 3.00867 8262.00000 42056.00000
92.28 8.00000 2.99782 8260.00000 42178.00000
92.30 6.00000 2.99782 8192.00000 41920.00000
92.32 6.00000 2.98696 8128.00000 41940.00000
92.34 4.00000 2.98696 8230.00000 41982.00000
92.36 2.00000 2.99782 8202.00000 41888.00000
92.38 0.00000 2.99782 8082.00000 42124.00000
92.40 2.00000 2.99782 7992.00000 42036.00000
92.42 2.00000 2.99782 8058.00000 42286.00000
92.44 2.00000 3.00867 8046.00000 42544.00000
92.46 2.00000 2.99782 7948.00000 42378.00000
92.48 2.00000 2.99782 7984.00000 42384.00000
92.50 2.00000 2.99782 8184.00000 42546.00000
92.52 8.00000 2.99782 8370.00000 42446.00000
92.54 8.00000 3.00867 8262.00000 42044.00000
92.56 6.00000 3.00867 8254.00000 42282.00000
92.58 4.00000 3.00867 8218.00000 42376.00000
92.60 2.00000 3.00867 8244.00000 42194.00000
92.62 6.00000 2.98696 8120.00000 42512.00000
92.64 6.00000 2.98696 8194.00000 42750.00000
92.66 2.00000 3.01953 8166.00000 43192.00000
92.68 4.00000 3.04124 8036.00000 42792.00000
92.70 8.00000 3.05210 8250.00000 42832.00000
92.72 4.00000 3.05210 8384.00000 43022.00000
92.74 2.00000 3.07381 8606.00000 43304.00000
92.76 0.00000 3.09552 8466.00000 43150.00000
92.78 4.00000 3.09552 8516.00000 43036.00000
92.80 6.00000 3.09552 8628.00000 43118.00000
92.82 2.00000 3.09552 8796.00000 43008.00000
92.84 2.00000 3.09552 8772.00000 43182.00000
92.86 2.00000 3.09552 8936.00000 43212.00000
92.88 4.00000 3.08466 8944.00000 43620.00000
92.90 2.00000 3.08466 9038.00000 43908.00000
92.92 6.00000 3.09552 8842.00000 43948.00000
92.94 4.00000 3.10637 8638.00000 44324.00000
92.96 0.00000 3.09552 8638.00000 44538.00000
92.98 0.00000 3.09552 8568.00000 44310.00000
93.00 0.00000 3.09552 8816.00000 44326.00000
93.02 2.00000 3.09552 8948.00000 44342.00000
93.04 2.00000 3.09552 9122.00000 44120.00000
93.06 2.00000 3.09552 8990.00000 44138.00000
93.08 2.00000 3.07381 8814.00000 43796.00000
93.10 0.00000 3.07381 8774.00000 43490.00000
93.12 0.00000 3.07381 8742.00000 43674.00000
93.14 2.00000 3.09552 8664.00000 43356.00000
93.16 2.00000 3.09552 8486.00000 43456.00000
93.18 4.00000 3.09552 8684.00000 43784.00000
93.20 6.00000 3.08466 8820.00000 43398.00000
93.22 10.00000 3.11723 8626.00000 43444.00000
93.24 12.00000 3.12809 8638.00000 43056.00000
93.26 10.00000 3.12809 8702.00000 43134.00000
93.28 4.00000 3.13894 8770.00000 42598.00000
93.30 2.00000 3.11723 8556.00000 42464.00000
93.32 2.00000 3.10637 8366.00000 42556.00000
93.34 2.00000 3.11723 8400.00000 42528.00000
93.36 2.00000 3.11723 8564.00000 42386.00000
93.38 2.00000 3.10637 8612.00000 42256.00000
93.40 4.00000 3.11723 8702.00000 42412.00000
93.42 4.00000 3.12809 8760.00000 41992.00000
93.44 2.00000 3.10637 8806.00000 42020.00000
93.46 4.00000 3.10637 8790.00000 42450.00000
93.48 6.00000 3.11723 8846.00000 43082.00000
93.50 4.00000 3.12809 8702.00000 43202.00000
93.52 2.00000 3.11723 8742.00000 43956.00000
93.54 0.00000 3.12809 8982.00000 44060.00000
93.56 0.00000 3.12809 9004.00000 44146.00000
93.58 0.00000 3.13894 8888.00000 44610.00000
93.60 2.00000 3.11723 9088.00000 44238.00000
93.62 2.00000 3.10637 9240.00000 44064.00000
93.64 2.00000 3.11723 9106.00000 44558.00000
93.66 2.00000 3.11723 9070.00000 44640.00000
93.68 0.00000 3.10637 9172.00000 44386.00000
93.70 2.00000 3.09552 9232.00000 44500.00000
93.72 4.00000 3.09552 9342.00000 44300.00000
93.74 8.00000 3.09552 9532.00000 43996.00000
93.76 6.00000 3.09552 9672.00000 44416.00000
93.78 2.00000 3.09552 9628.00000 44368.00000
93.80 2.00000 3.09552 9558.00000 44248.00000
93.82 2.00000 3.09552 9646.00000 44446.00000
93.84 2.00000 3.09552 9614.00000 44574.00000
93.86 0.00000 3.09552 9606.00000 44632.00000
93.88 2.00000 3.09552 9528.00000 44442.00000
93.90 2.00000 3.06295 9250.00000 44632.00000
93.92 0.00000 3.06295 9268.00000 44448.00000
93.94 2.00000 3.07381 9378.00000 44384.00000
93.96 2.00000 3.09552 9268.00000 44468.00000
93.98 6.00000 3.07381 9408.00000 44346.00000
94.00 6.00000 3.03038 9556.00000 44386.00000
94.02 6.00000 2.99782 9542.00000 44294.00000
94.04 2.00000 3.04124 9628.00000 44282.00000
94.06 0.00000 3.08466 9524.00000 44190.00000
94.08 0.00000 3.09552 9486.00000 44254.00000
94.10 0.00000 3.07381 9154.00000 44436.00000
94.12 2.00000 3.06295 9106.00000 44616.00000
94.14 4.00000 3.08466 9400.00000 44240.00000
94.16 2.00000 3.09552 9346.00000 44148.00000
94.18 0.00000 3.08466 9208.00000 44194.00000
94.20 0.00000 3.08466 9158.00000 44482.00000
94.22 0.00000 3.08466 8986.00000 44544.00000
94.24 0.00000 3.08466 8800.00000 44416.00000
94.26 2.00000 3.08466 8888.00000 44328.00000
94.28 2.00000 3.10637 8942.00000 44356.00000
94.30 2.00000 3.11723 8982.00000 43940.00000
94.32 2.00000 3.13894 8676.00000 43650.00000
94.34 4.00000 3.11723 8548.00000 43446.00000
94.36 2.00000 3.10637 8470.00000 43020.00000
94.38 8.00000 3.10637 8602.00000 42406.00000
94.40 10.00000 3.11723 8720.00000 42204.00000
94.42 8.00000 3.10637 8472.00000 42032.00000
94.44 6.00000 3.10637 8306.00000 41754.00000
94.46 4.00000 3.11723 8144.00000 41732.00000
94.48 4.00000 3.11723 8128.00000 42018.00000
94.50 6.00000 3.09552 7982.00000 42010.00000
94.52 4.00000 3.09552 7940.00000 41608.00000
94.54 6.00000 3.10637 7952.00000 41660.00000
94.56 2.00000 3.10637 8016.00000 41520.00000
94.58 6.00000 3.12809 8154.00000 41362.00000
94.60 8.00000 3.12809 8192.00000 41558.00000
94.62 4.00000 3.10637 8288.00000 41746.00000
94.64 4.00000 3.10637 8284.00000 42114.00000
94.66 4.00000 3.10637 8436.00000 42108.00000
94.68 4.00000 3.09552 8586.00000 42408.00000
94.70 4.00000 3.09552 8708.00000 42938.00000
94.72 10.00000 3.10637 8714.00000 43606.00000
94.74 10.00000 3.10637 8504.00000 43922.00000
94.76 4.00000 3.10637 8564.00000 44000.00000
