~Version Information
VERS.             2.0: LAS Version 2.0
WRAP.             NO: One Line per depth step
~Well Information Block
STRT.M                0.22: Start Depth
STOP.M                100.84: Stop Depth
STEP.M                0.02: Start Depth
NULL.                    -999:NULL VALUE
COMP.                PT.BGG: COMPANY
WELL.                DH-09-05C1:
FLD.                 MUARA LAWAI: FIELD
UWI.                 uwi: UWI
LOC.                 location: LOCATION
PROV.                SOUTH SUMATERA: PROVINCE
CNTY.                indonesia: COUNTRY
SRVC.                RescaLog: SERVICE COMPANY
DATE.                06-04-2021 09:37:27: LOG DATE
~Curve Information Block
DEPT.M        :DEPTH
GR.CPS                  :Gamma Ray
CL.CPS                  :Caliper
LD.CPS                  :Long Density
SD.CPS                  :Short Density
#DATA
~A
# ...
31.70 42.00000 4.51763 5378.00000 40664.00000
31.72 24.00000 4.52849 5360.00000 40958.00000
31.74 24.00000 4.53935 5094.00000 41196.00000
31.76 22.00000 4.53935 4854.00000 41614.00000
31.78 22.00000 4.51763 4856.00000 41818.00000
31.80 22.00000 4.50678 4864.00000 41946.00000
31.82 24.00000 4.50678 4870.00000 41808.00000
31.84 26.00000 4.50678 4736.00000 41276.00000
31.86 30.00000 4.51763 4572.00000 41006.00000
31.88 30.00000 4.52849 4576.00000 40892.00000
31.90 26.00000 4.52849 4596.00000 40404.00000
31.92 32.00000 4.51763 4652.00000 39626.00000
31.94 28.00000 4.51763 4442.00000 39354.00000
31.96 30.00000 4.51763 4340.00000 39298.00000
31.98 24.00000 4.52849 4260.00000 39768.00000
32.00 28.00000 4.51763 4316.00000 39956.00000
32.02 30.00000 4.51763 4462.00000 40340.00000
32.04 46.00000 4.50678 4530.00000 40224.00000
32.06 56.00000 4.51763 4586.00000 40296.00000
32.08 44.00000 4.52849 4504.00000 39990.00000
32.10 40.00000 4.53935 4520.00000 39746.00000
32.12 36.00000 4.52849 4410.00000 39592.00000
32.14 34.00000 4.51763 4402.00000 39896.00000
32.16 26.00000 4.50678 4382.00000 40262.00000
32.18 10.00000 4.50678 4338.00000 40636.00000
32.20 18.00000 4.51763 4170.00000 40726.00000
32.22 26.00000 4.52849 4162.00000 41060.00000
32.24 40.00000 4.53935 4192.00000 40998.00000
32.26 48.00000 4.53935 4402.00000 40806.00000
32.28 42.00000 4.52849 4464.00000 40306.00000
32.30 34.00000 4.50678 4518.00000 40102.00000
32.32 26.00000 4.50678 4464.00000 39930.00000
32.34 34.00000 4.52849 4318.00000 39612.00000
32.36 44.00000 4.53935 4372.00000 39544.00000
32.38 54.00000 4.55020 4532.00000 39668.00000
32.40 46.00000 4.52849 4622.00000 40268.00000
32.42 38.00000 4.51763 4734.00000 40716.00000
32.44 28.00000 4.51763 4880.00000 40942.00000
32.46 26.00000 4.52849 4990.00000 41278.00000
32.48 38.00000 4.52849 5000.00000 41884.00000
32.50 34.00000 4.51763 4972.00000 41994.00000
32.52 36.00000 4.51763 5050.00000 42134.00000
32.54 28.00000 4.52849 5322.00000 42572.00000
32.56 30.00000 4.52849 5414.00000 42694.00000
32.58 36.00000 4.51763 5416.00000 42910.00000
32.60 46.00000 4.50678 5318.00000 42378.00000
32.62 54.00000 4.51763 5386.00000 42282.00000
32.64 50.00000 4.52849 5234.00000 42070.00000
32.66 32.00000 4.52849 5232.00000 42492.00000
32.68 40.00000 4.51763 5164.00000 42834.00000
32.70 58.00000 4.50678 5272.00000 43122.00000
32.72 50.00000 4.51763 5202.00000 42926.00000
32.74 50.00000 4.52849 5042.00000 42544.00000
32.76 28.00000 4.52849 4844.00000 42070.00000
32.78 34.00000 4.51763 4786.00000 41290.00000
32.80 52.00000 4.52849 4834.00000 40466.00000
32.82 66.00000 4.52849 4884.00000 40222.00000
32.84 66.00000 4.53935 4864.00000 40024.00000
32.86 52.00000 4.51763 4786.00000 40068.00000
32.88 40.00000 4.52849 4680.00000 40160.00000
32.90 28.00000 4.51763 4578.00000 39858.00000
32.92 34.00000 4.51763 4534.00000 39758.00000
32.94 30.00000 4.52849 4502.00000 39610.00000
32.96 30.00000 4.53935 4578.00000 39646.00000
32.98 28.00000 4.55020 4636.00000 39410.00000
33.00 24.00000 4.52849 4602.00000 39096.00000
33.02 32.00000 4.51763 4548.00000 39182.00000
33.04 32.00000 4.51763 4506.00000 39100.00000
33.06 44.00000 4.53935 4530.00000 39126.00000
33.08 44.00000 4.55020 4526.00000 39128.00000
33.10 42.00000 4.55020 4514.00000 39464.00000
33.12 46.00000 4.52849 4450.00000 39600.00000
33.14 34.00000 4.52849 4408.00000 39686.00000
33.16 38.00000 4.52849 4424.00000 39572.00000
33.18 30.00000 4.52849 4488.00000 39456.00000
33.20 38.00000 4.51763 4470.00000 39256.00000
33.22 40.00000 4.52849 4396.00000 39360.00000
33.24 46.00000 4.55020 4310.00000 39850.00000
33.26 56.00000 4.55020 4126.00000 40222.00000
33.28 46.00000 4.55020 4080.00000 40156.00000
33.30 54.00000 4.53935 4054.00000 40148.00000
33.32 42.00000 4.52849 4218.00000 39816.00000
33.34 48.00000 4.51763 4222.00000 39846.00000
33.36 46.00000 4.51763 4232.00000 39258.00000
33.38 44.00000 4.51763 4180.00000 38796.00000
33.40 38.00000 4.51763 4214.00000 38504.00000
33.42 28.00000 4.50678 4234.00000 38186.00000
33.44 40.00000 4.51763 4146.00000 38514.00000
33.46 34.00000 4.51763 4130.00000 38708.00000
33.48 46.00000 4.52849 4110.00000 39230.00000
33.50 50.00000 4.51763 4192.00000 39142.00000
33.52 60.00000 4.51763 4236.00000 39114.00000
33.54 46.00000 4.51763 4352.00000 39040.00000
33.56 28.00000 4.52849 4366.00000 39232.00000
33.58 28.00000 4.52849 4344.00000 39502.00000
33.60 32.00000 4.51763 4350.00000 39400.00000
33.62 42.00000 4.50678 4374.00000 39432.00000
33.64 54.00000 4.51763 4500.00000 39614.00000
33.66 56.00000 4.51763 4458.00000 39448.00000
33.68 50.00000 4.51763 4388.00000 39650.00000
33.70 28.00000 4.50678 4418.00000 39544.00000
33.72 22.00000 4.50678 4524.00000 39670.00000
33.74 26.00000 4.51763 4632.00000 39286.00000
33.76 46.00000 4.52849 4594.00000 38948.00000
33.78 50.00000 4.52849 4740.00000 38988.00000
33.80 42.00000 4.51763 4728.00000 39070.00000
33.82 36.00000 4.50678 4636.00000 39272.00000
33.84 36.00000 4.51763 4406.00000 39222.00000
33.86 40.00000 4.51763 4454.00000 39254.00000
33.88 42.00000 4.51763 4454.00000 39250.00000
33.90 54.00000 4.51763 4468.00000 39274.00000
33.92 64.00000 4.51763 4424.00000 39480.00000
33.94 62.00000 4.52849 4446.00000 39434.00000
33.96 44.00000 4.51763 4502.00000 39412.00000
33.98 50.00000 4.51763 4500.00000 39340.00000
34.00 48.00000 4.50678 4442.00000 39068.00000
34.02 58.00000 4.50678 4376.00000 38734.00000
34.04 34.00000 4.50678 4416.00000 38740.00000
34.06 36.00000 4.50678 4412.00000 38790.00000
34.08 32.00000 4.50678 4538.00000 38922.00000
34.10 44.00000 4.50678 4630.00000 38804.00000
34.12 56.00000 4.50678 4686.00000 39084.00000
34.14 50.00000 4.50678 4648.00000 39370.00000
34.16 42.00000 4.50678 4500.00000 39422.00000
34.18 32.00000 4.50678 4364.00000 39252.00000
34.20 46.00000 4.52849 4306.00000 39140.00000
34.22 54.00000 4.53935 4382.00000 39316.00000
34.24 50.00000 4.55020 4536.00000 39330.00000
34.26 42.00000 4.55020 4588.00000 39572.00000
34.28 40.00000 4.55020 4610.00000 39704.00000
34.30 34.00000 4.55020 4462.00000 39736.00000
34.32 42.00000 4.53935 4438.00000 40018.00000
34.34 42.00000 4.55020 4278.00000 39918.00000
34.36 58.00000 4.55020 4242.00000 39824.00000
34.38 52.00000 4.55020 4338.00000 39414.00000
34.40 44.00000 4.55020 4460.00000 39282.00000
34.42 44.00000 4.55020 4602.00000 39496.00000
34.44 48.00000 4.55020 4570.00000 39700.00000
34.46 50.00000 4.55020 4540.00000 39896.00000
34.48 34.00000 4.53935 4586.00000 39498.00000
34.50 26.00000 4.53935 4668.00000 39478.00000
34.52 40.00000 4.52849 4660.00000 39062.00000
34.54 50.00000 4.53935 4548.00000 39020.00000
34.56 54.00000 4.55020 4600.00000 38684.00000
34.58 44.00000 4.53935 4640.00000 38886.00000
34.60 36.00000 4.52849 4802.00000 39172.00000
34.62 38.00000 4.51763 4834.00000 39340.00000
34.64 34.00000 4.53935 4756.00000 39268.00000
34.66 40.00000 4.53935 4706.00000 38944.00000
34.68 44.00000 4.55020 4632.00000 39040.00000
34.70 56.00000 4.53935 4524.00000 39034.00000
34.72 64.00000 4.55020 4620.00000 39312.00000
34.74 54.00000 4.53935 4710.00000 39426.00000
34.76 48.00000 4.53935 4836.00000 39690.00000
34.78 42.00000 4.52849 4812.00000 39828.00000
34.80 46.00000 4.52849 4802.00000 39602.00000
34.82 38.00000 4.52849 4882.00000 39296.00000
34.84 32.00000 4.53935 4788.00000 39732.00000
34.86 28.00000 4.53935 4922.00000 40574.00000
34.88 36.00000 4.53935 4810.00000 41090.00000
34.90 42.00000 4.52849 4794.00000 41480.00000
34.92 50.00000 4.53935 4632.00000 41284.00000
34.94 52.00000 4.52849 4672.00000 41428.00000
34.96 48.00000 4.55020 4712.00000 40816.00000
34.98 48.00000 4.55020 4706.00000 40296.00000
35.00 48.00000 4.55020 4730.00000 40036.00000
35.02 56.00000 4.52849 4802.00000 39826.00000
35.04 42.00000 4.52849 4742.00000 39516.00000
35.06 46.00000 4.53935 4606.00000 39612.00000
35.08 40.00000 4.55020 4554.00000 39610.00000
35.10 52.00000 4.55020 4536.00000 39768.00000
35.12 46.00000 4.55020 4508.00000 39786.00000
35.14 42.00000 4.55020 4410.00000 39620.00000
35.16 42.00000 4.55020 4492.00000 39366.00000
