~Version Information
VERS.             2.0: LAS Version 2.0
WRAP.             NO: One Line per depth step
~Well Information Block
STRT.M                0.22: Start Depth
STOP.M                100.84: Stop Depth
STEP.M                0.02: Start Depth
NULL.                    -999:NULL VALUE
COMP.                PT.BGG: COMPANY
WELL.                DH-09-05C1:
FLD.                 MUARA LAWAI: FIELD
UWI.                 uwi: UWI
LOC.                 location: LOCATION
PROV.                SOUTH SUMATERA: PROVINCE
CNTY.                indonesia: COUNTRY
SRVC.                RescaLog: SERVICE COMPANY
DATE.                06-04-2021 09:37:27: LOG DATE
~Curve Information Block
DEPT.M        :DEPTH
GR.CPS                  :Gamma Ray
CL.CPS                  :Caliper
LD.CPS                  :Long Density
SD.CPS                  :Short Density
#DATA
~A
# ...
52.58 54.00000 4.49592 4240.00000 38910.00000
52.60 48.00000 4.49592 4286.00000 39196.00000
52.62 58.00000 4.49592 4266.00000 39526.00000
52.64 48.00000 4.48507 4230.00000 39510.00000
52.66 38.00000 4.48507 4466.00000 39538.00000
52.68 40.00000 4.49592 4446.00000 39654.00000
52.70 38.00000 4.50678 4650.00000 39612.00000
52.72 38.00000 4.48507 4582.00000 39616.00000
52.74 36.00000 4.48507 4444.00000 39598.00000
52.76 38.00000 4.48507 4520.00000 39346.00000
52.78 46.00000 4.47421 4674.00000 39380.00000
52.80 42.00000 4.47421 4592.00000 39216.00000
52.82 50.00000 4.48507 4562.00000 39118.00000
52.84 50.00000 4.47421 4496.00000 38836.00000
52.86 46.00000 4.45250 4606.00000 38830.00000
52.88 44.00000 4.45250 4516.00000 38748.00000
52.90 36.00000 4.45250 4500.00000 38810.00000
52.92 46.00000 4.45250 4444.00000 38532.00000
52.94 42.00000 4.46335 4396.00000 38856.00000
52.96 56.00000 4.45250 4474.00000 38870.00000
52.98 48.00000 4.46335 4354.00000 39038.00000
53.00 62.00000 4.45250 4398.00000 39174.00000
53.02 56.00000 4.46335 4314.00000 39100.00000
53.04 74.00000 4.45250 4422.00000 39008.00000
53.06 58.00000 4.45250 4332.00000 39012.00000
53.08 44.00000 4.43079 4348.00000 39300.00000
53.10 52.00000 4.41993 4262.00000 39060.00000
53.12 50.00000 4.39822 4506.00000 38784.00000
53.14 54.00000 4.37651 4494.00000 38836.00000
53.16 38.00000 4.33308 4500.00000 39052.00000
53.18 54.00000 4.31137 4468.00000 39230.00000
53.20 44.00000 4.30052 4514.00000 39040.00000
53.22 58.00000 4.30052 4642.00000 38972.00000
53.24 36.00000 4.28966 4688.00000 39300.00000
53.26 42.00000 4.28966 4536.00000 40106.00000
53.28 46.00000 4.26795 4562.00000 40352.00000
53.30 48.00000 4.24624 4522.00000 40244.00000
53.32 42.00000 4.24624 4630.00000 40162.00000
53.34 36.00000 4.24624 4592.00000 40052.00000
53.36 38.00000 4.24624 4652.00000 40376.00000
53.38 38.00000 4.24624 4666.00000 40334.00000
53.40 54.00000 4.24624 4872.00000 39854.00000
53.42 54.00000 4.22453 4868.00000 39816.00000
53.44 54.00000 4.22453 5038.00000 40016.00000
53.46 36.00000 4.22453 5052.00000 40396.00000
53.48 36.00000 4.23538 5094.00000 40458.00000
53.50 26.00000 4.25709 5066.00000 40436.00000
53.52 28.00000 4.26795 5062.00000 40516.00000
53.54 42.00000 4.27881 4910.00000 40412.00000
53.56 58.00000 4.27881 5026.00000 40516.00000
53.58 58.00000 4.27881 5106.00000 40634.00000
53.60 54.00000 4.25709 5216.00000 40754.00000
53.62 44.00000 4.25709 5166.00000 40578.00000
53.64 56.00000 4.26795 5248.00000 40384.00000
53.66 60.00000 4.26795 5340.00000 40514.00000
53.68 44.00000 4.26795 5322.00000 40630.00000
53.70 38.00000 4.25709 5202.00000 40424.00000
53.72 50.00000 4.24624 4976.00000 40132.00000
53.74 50.00000 4.25709 5028.00000 40196.00000
53.76 40.00000 4.25709 5090.00000 40518.00000
53.78 22.00000 4.27881 5244.00000 40476.00000
53.80 34.00000 4.27881 5174.00000 40442.00000
53.82 48.00000 4.25709 5184.00000 40316.00000
53.84 48.00000 4.24624 5140.00000 40292.00000
53.86 38.00000 4.24624 5128.00000 40358.00000
53.88 34.00000 4.24624 5092.00000 40390.00000
53.90 38.00000 4.25709 5002.00000 40438.00000
53.92 44.00000 4.26795 4934.00000 40598.00000
53.94 38.00000 4.26795 4784.00000 40800.00000
53.96 48.00000 4.26795 4768.00000 40826.00000
53.98 54.00000 4.26795 4556.00000 40536.00000
54.00 46.00000 4.26795 4392.00000 40078.00000
54.02 46.00000 4.26795 4302.00000 39742.00000
54.04 50.00000 4.26795 4252.00000 39050.00000
54.06 38.00000 4.25709 4242.00000 39104.00000
54.08 54.00000 4.25709 4004.00000 38664.00000
54.10 52.00000 4.26795 3932.00000 38674.00000
54.12 52.00000 4.25709 3860.00000 38244.00000
54.14 44.00000 4.25709 3780.00000 38084.00000
54.16 36.00000 4.27881 3650.00000 37808.00000
54.18 44.00000 4.27881 3476.00000 37558.00000
54.20 30.00000 4.28966 3514.00000 37160.00000
54.22 32.00000 4.28966 3416.00000 36800.00000
54.24 40.00000 4.28966 3428.00000 36814.00000
54.26 54.00000 4.28966 3232.00000 36992.00000
54.28 48.00000 4.28966 3212.00000 36874.00000
54.30 38.00000 4.28966 3138.00000 36972.00000
54.32 40.00000 4.28966 3122.00000 37074.00000
54.34 50.00000 4.28966 3176.00000 37316.00000
54.36 48.00000 4.28966 3192.00000 37198.00000
54.38 40.00000 4.28966 3186.00000 37336.00000
54.40 56.00000 4.28966 3130.00000 37172.00000
54.42 62.00000 4.26795 3210.00000 37198.00000
54.44 72.00000 4.26795 3246.00000 37100.00000
54.46 62.00000 4.26795 3376.00000 37534.00000
54.48 56.00000 4.28966 3428.00000 37768.00000
54.50 28.00000 4.26795 3410.00000 37788.00000
54.52 32.00000 4.26795 3322.00000 37774.00000
54.54 54.00000 4.26795 3314.00000 37950.00000
54.56 60.00000 4.28966 3278.00000 38362.00000
54.58 62.00000 4.28966 3312.00000 38352.00000
54.60 48.00000 4.28966 3364.00000 38308.00000
54.62 60.00000 4.28966 3402.00000 38424.00000
54.64 44.00000 4.27881 3420.00000 38276.00000
54.66 30.00000 4.27881 3468.00000 38456.00000
54.68 24.00000 4.27881 3564.00000 38298.00000
54.70 30.00000 4.27881 3514.00000 38488.00000
54.72 30.00000 4.26795 3584.00000 38328.00000
54.74 22.00000 4.27881 3592.00000 38426.00000
54.76 22.00000 4.28966 3698.00000 38806.00000
54.78 24.00000 4.28966 3554.00000 39248.00000
54.80 32.00000 4.28966 3430.00000 39518.00000
54.82 34.00000 4.28966 3368.00000 39680.00000
54.84 40.00000 4.28966 3412.00000 39728.00000
54.86 38.00000 4.28966 3428.00000 39700.00000
54.88 44.00000 4.28966 3470.00000 39648.00000
54.90 36.00000 4.28966 3490.00000 39278.00000
54.92 32.00000 4.28966 3498.00000 39112.00000
54.94 32.00000 4.28966 3442.00000 38806.00000
54.96 28.00000 4.28966 3488.00000 38724.00000
54.98 16.00000 4.28966 3462.00000 38756.00000
55.00 20.00000 4.28966 3432.00000 38836.00000
55.02 24.00000 4.30052 3296.00000 39102.00000
55.04 26.00000 4.30052 3256.00000 39238.00000
55.06 26.00000 4.30052 3186.00000 39180.00000
55.08 26.00000 4.28966 3140.00000 38868.00000
55.10 34.00000 4.28966 3158.00000 39012.00000
55.12 32.00000 4.28966 3180.00000 38928.00000
55.14 38.00000 4.28966 3340.00000 38962.00000
55.16 40.00000 4.28966 3272.00000 38714.00000
55.18 32.00000 4.28966 3280.00000 38872.00000
55.20 46.00000 4.28966 3212.00000 38642.00000
55.22 52.00000 4.28966 3232.00000 38572.00000
55.24 54.00000 4.28966 3290.00000 38716.00000
55.26 42.00000 4.28966 3274.00000 38754.00000
55.28 46.00000 4.28966 3310.00000 38610.00000
55.30 38.00000 4.28966 3288.00000 38492.00000
55.32 34.00000 4.28966 3160.00000 38668.00000
55.34 16.00000 4.28966 3150.00000 38708.00000
55.36 20.00000 4.28966 3128.00000 38318.00000
55.38 22.00000 4.28966 3262.00000 37778.00000
55.40 30.00000 4.28966 3140.00000 37662.00000
55.42 54.00000 4.28966 3218.00000 37610.00000
55.44 54.00000 4.30052 3182.00000 37532.00000
55.46 44.00000 4.30052 3132.00000 37418.00000
55.48 26.00000 4.30052 3200.00000 37070.00000
55.50 44.00000 4.28966 3188.00000 36806.00000
55.52 50.00000 4.28966 3168.00000 36776.00000
55.54 50.00000 4.28966 3060.00000 36710.00000
55.56 36.00000 4.30052 3102.00000 36686.00000
55.58 32.00000 4.30052 3116.00000 36296.00000
55.60 34.00000 4.30052 3068.00000 36634.00000
55.62 34.00000 4.30052 3006.00000 36656.00000
55.64 42.00000 4.30052 2994.00000 36880.00000
55.66 34.00000 4.30052 3024.00000 36694.00000
55.68 28.00000 4.28966 3016.00000 36982.00000
55.70 28.00000 4.28966 3044.00000 36954.00000
55.72 36.00000 4.28966 3050.00000 36844.00000
55.74 50.00000 4.28966 3202.00000 36760.00000
55.76 56.00000 4.28966 3212.00000 36948.00000
55.78 56.00000 4.28966 3156.00000 37010.00000
55.80 68.00000 4.28966 3146.00000 36970.00000
55.82 58.00000 4.30052 3184.00000 37054.00000
55.84 42.00000 4.30052 3274.00000 36980.00000
55.86 30.00000 4.28966 3282.00000 37458.00000
55.88 30.00000 4.28966 3224.00000 37240.00000
55.90 42.00000 4.28966 3210.00000 37330.00000
55.92 40.00000 4.28966 3334.00000 36886.00000
55.94 34.00000 4.28966 3418.00000 37044.00000
55.96 36.00000 4.28966 3412.00000 36902.00000
55.98 32.00000 4.28966 3298.00000 37200.00000
56.00 46.00000 4.28966 3324.00000 37468.00000
56.02 46.00000 4.28966 3524.00000 37922.00000
56.04 54.00000 4.28966 3508.00000 38210.00000
