~Version Information
VERS.             2.0: LAS Version 2.0
WRAP.             NO: One Line per depth step
~Well Information Block
STRT.M                0.22: Start Depth
STOP.M                100.84: Stop Depth
STEP.M                0.02: Start Depth
NULL.                    -999:NULL VALUE
COMP.                PT.BGG: COMPANY
WELL.                DH-09-05C1:
FLD.                 MUARA LAWAI: FIELD
UWI.                 uwi: UWI
LOC.                 location: LOCATION
PROV.                SOUTH SUMATERA: PROVINCE
CNTY.                indonesia: COUNTRY
SRVC.                RescaLog: SERVICE COMPANY
DATE.                06-04-2021 09:37:27: LOG DATE
~Curve Information Block
DEPT.M        :DEPTH
GR.CPS                  :Gamma Ray
CL.CPS                  :Caliper
LD.CPS                  :Long Density
SD.CPS                  :Short Density
#DATA
~A
# ...
45.62 28.00000 4.48507 5616.00000 42450.00000
45.64 40.00000 4.49592 5320.00000 42522.00000
45.66 34.00000 4.48507 5324.00000 41992.00000
45.68 36.00000 4.45250 5194.00000 41664.00000
45.70 46.00000 4.45250 5180.00000 41374.00000
45.72 48.00000 4.46335 4848.00000 40710.00000
45.74 48.00000 4.49592 4868.00000 40232.00000
45.76 38.00000 4.48507 4796.00000 40062.00000
45.78 38.00000 4.47421 4772.00000 39958.00000
45.80 38.00000 4.46335 4758.00000 39636.00000
45.82 46.00000 4.48507 4728.00000 39940.00000
45.84 48.00000 4.47421 4740.00000 40210.00000
45.86 50.00000 4.46335 4676.00000 41078.00000
45.88 36.00000 4.44164 4564.00000 41262.00000
45.90 38.00000 4.44164 4544.00000 41438.00000
45.92 40.00000 4.47421 4502.00000 41396.00000
45.94 46.00000 4.47421 4542.00000 41260.00000
45.96 46.00000 4.48507 4500.00000 40920.00000
45.98 60.00000 4.47421 4430.00000 40712.00000
46.00 54.00000 4.47421 4464.00000 40564.00000
46.02 58.00000 4.47421 4446.00000 40204.00000
46.04 58.00000 4.48507 4564.00000 39906.00000
46.06 66.00000 4.48507 4530.00000 39540.00000
46.08 64.00000 4.46335 4430.00000 39114.00000
46.10 48.00000 4.46335 4362.00000 39086.00000
46.12 44.00000 4.48507 4346.00000 39036.00000
46.14 46.00000 4.49592 4476.00000 39440.00000
46.16 48.00000 4.48507 4560.00000 39280.00000
46.18 62.00000 4.48507 4562.00000 38914.00000
46.20 64.00000 4.46335 4552.00000 38836.00000
46.22 62.00000 4.47421 4546.00000 39060.00000
46.24 44.00000 4.45250 4680.00000 39168.00000
46.26 30.00000 4.48507 4732.00000 39340.00000
46.28 40.00000 4.47421 4932.00000 39218.00000
46.30 40.00000 4.47421 5008.00000 40096.00000
46.32 50.00000 4.46335 5168.00000 40226.00000
46.34 44.00000 4.47421 5300.00000 40676.00000
46.36 56.00000 4.49592 5800.00000 40752.00000
46.38 46.00000 4.48507 6132.00000 41848.00000
46.40 38.00000 4.46335 6204.00000 42480.00000
46.42 30.00000 4.46335 6374.00000 42908.00000
46.44 36.00000 4.48507 6446.00000 43606.00000
46.46 46.00000 4.47421 6666.00000 43702.00000
46.48 46.00000 4.46335 6608.00000 43480.00000
46.50 42.00000 4.46335 6768.00000 43244.00000
46.52 28.00000 4.49592 6874.00000 42940.00000
46.54 14.00000 4.49592 6992.00000 42880.00000
46.56 14.00000 4.47421 6926.00000 42476.00000
46.58 18.00000 4.45250 6814.00000 42484.00000
46.60 18.00000 4.46335 6748.00000 42082.00000
46.62 16.00000 4.48507 6664.00000 42034.00000
46.64 16.00000 4.49592 6678.00000 41684.00000
46.66 28.00000 4.47421 6700.00000 42010.00000
46.68 30.00000 4.47421 6636.00000 41928.00000
46.70 26.00000 4.46335 6542.00000 41990.00000
46.72 24.00000 4.46335 6360.00000 42338.00000
46.74 28.00000 4.46335 6296.00000 42320.00000
46.76 18.00000 4.48507 6434.00000 42584.00000
46.78 16.00000 4.49592 6468.00000 42330.00000
46.80 18.00000 4.49592 6416.00000 42550.00000
46.82 28.00000 4.48507 6378.00000 42572.00000
46.84 30.00000 4.49592 6278.00000 42386.00000
46.86 22.00000 4.49592 6340.00000 41946.00000
46.88 20.00000 4.48507 6306.00000 41844.00000
46.90 28.00000 4.48507 6316.00000 41826.00000
46.92 32.00000 4.48507 6402.00000 41932.00000
46.94 28.00000 4.49592 6242.00000 41804.00000
46.96 32.00000 4.49592 6300.00000 41758.00000
46.98 28.00000 4.48507 6182.00000 41588.00000
47.00 32.00000 4.49592 6306.00000 41626.00000
47.02 28.00000 4.48507 6290.00000 41764.00000
47.04 30.00000 4.49592 6278.00000 41594.00000
47.06 34.00000 4.47421 6246.00000 41644.00000
47.08 50.00000 4.48507 6170.00000 41294.00000
47.10 46.00000 4.47421 6140.00000 41630.00000
47.12 40.00000 4.49592 6130.00000 42130.00000
47.14 22.00000 4.48507 6274.00000 42060.00000
47.16 28.00000 4.49592 6292.00000 41690.00000
47.18 26.00000 4.47421 6358.00000 41464.00000
47.20 20.00000 4.48507 6392.00000 41536.00000
47.22 14.00000 4.48507 6378.00000 41832.00000
47.24 14.00000 4.49592 6330.00000 41728.00000
47.26 12.00000 4.47421 6206.00000 41676.00000
47.28 22.00000 4.47421 6226.00000 41872.00000
47.30 20.00000 4.47421 6234.00000 42084.00000
47.32 34.00000 4.49592 6272.00000 42052.00000
47.34 28.00000 4.47421 6208.00000 41900.00000
47.36 34.00000 4.48507 6244.00000 41686.00000
47.38 32.00000 4.46335 6238.00000 41784.00000
47.40 32.00000 4.46335 6178.00000 41744.00000
47.42 36.00000 4.46335 6006.00000 41798.00000
47.44 24.00000 4.47421 6002.00000 41882.00000
47.46 24.00000 4.49592 6034.00000 42082.00000
47.48 22.00000 4.47421 5968.00000 42230.00000
47.50 28.00000 4.48507 5950.00000 42132.00000
47.52 28.00000 4.48507 5878.00000 41564.00000
47.54 28.00000 4.48507 5926.00000 41458.00000
47.56 28.00000 4.47421 5918.00000 41306.00000
47.58 30.00000 4.47421 5836.00000 41502.00000
47.60 30.00000 4.48507 5606.00000 41516.00000
47.62 30.00000 4.47421 5586.00000 41814.00000
47.64 22.00000 4.47421 5456.00000 41944.00000
47.66 18.00000 4.48507 5366.00000 41972.00000
47.68 34.00000 4.49592 5284.00000 41652.00000
47.70 42.00000 4.49592 5346.00000 41158.00000
47.72 54.00000 4.47421 5338.00000 40978.00000
47.74 60.00000 4.47421 5378.00000 40542.00000
47.76 46.00000 4.47421 5380.00000 40796.00000
47.78 46.00000 4.48507 5392.00000 40598.00000
47.80 24.00000 4.48507 5250.00000 40730.00000
47.82 30.00000 4.47421 5194.00000 40408.00000
47.84 50.00000 4.47421 5172.00000 40320.00000
47.86 46.00000 4.48507 5074.00000 40022.00000
47.88 54.00000 4.49592 5080.00000 39676.00000
47.90 34.00000 4.49592 5012.00000 39564.00000
47.92 40.00000 4.48507 5004.00000 39806.00000
47.94 60.00000 4.48507 4840.00000 39894.00000
47.96 74.00000 4.48507 4858.00000 39954.00000
47.98 58.00000 4.48507 4888.00000 40018.00000
48.00 30.00000 4.47421 4912.00000 39880.00000
48.02 26.00000 4.48507 4910.00000 40024.00000
48.04 30.00000 4.48507 4932.00000 39908.00000
48.06 34.00000 4.48507 5052.00000 39762.00000
48.08 44.00000 4.46335 4938.00000 39566.00000
48.10 54.00000 4.45250 4968.00000 39608.00000
48.12 44.00000 4.45250 4760.00000 40028.00000
48.14 34.00000 4.47421 4842.00000 40082.00000
48.16 30.00000 4.49592 4686.00000 40656.00000
48.18 42.00000 4.49592 4794.00000 40994.00000
48.20 34.00000 4.48507 4812.00000 41158.00000
48.22 32.00000 4.48507 4962.00000 40974.00000
48.24 24.00000 4.49592 4942.00000 40646.00000
48.26 48.00000 4.49592 4936.00000 40618.00000
48.28 60.00000 4.49592 4800.00000 40316.00000
48.30 76.00000 4.48507 4750.00000 40220.00000
48.32 60.00000 4.47421 4732.00000 39944.00000
48.34 48.00000 4.47421 4884.00000 40250.00000
48.36 34.00000 4.47421 4916.00000 40070.00000
48.38 34.00000 4.48507 4918.00000 39666.00000
48.40 42.00000 4.48507 4782.00000 39364.00000
48.42 38.00000 4.46335 4788.00000 39324.00000
48.44 36.00000 4.46335 4696.00000 39552.00000
48.46 36.00000 4.46335 4702.00000 39614.00000
48.48 36.00000 4.46335 4612.00000 39576.00000
48.50 42.00000 4.47421 4682.00000 39426.00000
48.52 44.00000 4.47421 4566.00000 39446.00000
48.54 44.00000 4.49592 4570.00000 39476.00000
48.56 40.00000 4.48507 4462.00000 39420.00000
48.58 40.00000 4.48507 4496.00000 39368.00000
48.60 34.00000 4.46335 4460.00000 39422.00000
48.62 24.00000 4.47421 4490.00000 39780.00000
48.64 30.00000 4.47421 4496.00000 39618.00000
48.66 34.00000 4.48507 4526.00000 39544.00000
48.68 54.00000 4.48507 4538.00000 39132.00000
48.70 58.00000 4.48507 4520.00000 39162.00000
48.72 48.00000 4.48507 4508.00000 39308.00000
48.74 42.00000 4.49592 4650.00000 39500.00000
48.76 40.00000 4.49592 4708.00000 39614.00000
48.78 38.00000 4.48507 4690.00000 39550.00000
48.80 36.00000 4.47421 4490.00000 39732.00000
48.82 40.00000 4.48507 4396.00000 39408.00000
48.84 28.00000 4.47421 4460.00000 39302.00000
48.86 22.00000 4.48507 4568.00000 39178.00000
48.88 32.00000 4.47421 4708.00000 39410.00000
48.90 38.00000 4.48507 4644.00000 39462.00000
48.92 40.00000 4.46335 4560.00000 39602.00000
48.94 46.00000 4.47421 4452.00000 39486.00000
48.96 66.00000 4.46335 4478.00000 39532.00000
48.98 50.00000 4.48507 4530.00000 39390.00000
49.00 44.00000 4.47421 4452.00000 39672.00000
49.02 30.00000 4.47421 4500.00000 39290.00000
49.04 38.00000 4.46335 4592.00000 39394.00000
49.06 52.00000 4.47421 4746.00000 39436.00000
49.08 52.00000 4.47421 4802.00000 39756.00000
